Name,Latitude,Longitude,Type,Maps_Link,Rainfall,Rainfall_Intensity,Elevation,Distance_to_Water_Body,Flood_Prone
Sardar Patel Cantonment General Hospital,18.5027163,73.87712,hospital,https://www.openstreetmap.org/?mlat=18.5027163&mlon=73.87712#map=18/18.5027163/73.87712,1,83.01154183321641,523.1299811760374,4.212327566824544,0
Command Hospital Southern Command,18.5005828,73.8894328,hospital,https://www.openstreetmap.org/?mlat=18.5005828&mlon=73.8894328#map=18/18.5005828/73.8894328,1,216.31683366602863,775.8600267256702,4.983768404723797,0
Sassoon Hospital,18.5251434,73.8695664,hospital,https://www.openstreetmap.org/?mlat=18.5251434&mlon=73.8695664#map=18/18.5251434/73.8695664,0,272.0416766875568,558.1124856358798,7.586811490520465,0
Karva Hospital,18.5009733,73.8461063,hospital,https://www.openstreetmap.org/?mlat=18.5009733&mlon=73.8461063#map=18/18.5009733/73.8461063,1,2.6348934639216504,560.0639377031046,6.374150738696728,0
Sahyadri Hospital,18.5074625,73.8057842,hospital,https://www.openstreetmap.org/?mlat=18.5074625&mlon=73.8057842#map=18/18.5074625/73.8057842,1,203.5503151819731,615.6126806128563,4.313980134105019,0
"Krishna Hospital, Pune",18.5092055,73.8128199,hospital,https://www.openstreetmap.org/?mlat=18.5092055&mlon=73.8128199#map=18/18.5092055/73.8128199,1,271.69572469773897,751.3978411525318,4.367412669285715,0
Madhukar General Hospital,18.4789234,73.8241232,hospital,https://www.openstreetmap.org/?mlat=18.4789234&mlon=73.8241232#map=18/18.4789234/73.8241232,1,36.82272257873067,709.1625173438233,4.4316157434434045,0
Dr. Mudgerikar Clinic,18.477378,73.819076,hospital,https://www.openstreetmap.org/?mlat=18.477378&mlon=73.819076#map=18/18.477378/73.819076,1,234.53637587819358,552.760597159018,2.224599459908477,1
Dr. Bodhe Clinic,18.4745186,73.8132288,hospital,https://www.openstreetmap.org/?mlat=18.4745186&mlon=73.8132288#map=18/18.4745186/73.8132288,1,265.4332270853744,510.0395153077345,2.8689790299531692,1
Dr. Naik Clinic,18.4745644,73.8140764,hospital,https://www.openstreetmap.org/?mlat=18.4745644&mlon=73.8140764#map=18/18.4745644/73.8140764,1,147.76547384777612,675.1709923215146,4.295885566131909,0
Trimurti Hospital,18.462396,73.8150518,hospital,https://www.openstreetmap.org/?mlat=18.462396&mlon=73.8150518#map=18/18.462396/73.8150518,1,203.805973692828,885.318091216692,5.654237667711136,0
Sanjiwini Hospital,18.4433669,73.848079,hospital,https://www.openstreetmap.org/?mlat=18.4433669&mlon=73.848079#map=18/18.4433669/73.848079,1,180.89263381483343,816.6126842421284,6.802265324769371,0
Surya Sahyadri Hospital,18.521259,73.8556767,hospital,https://www.openstreetmap.org/?mlat=18.521259&mlon=73.8556767#map=18/18.521259/73.8556767,0,218.40775711017665,890.0199705094822,3.258114922414114,0
Gupte Hospital Of Accurate Diagnostics Pvt Ltd,18.519051,73.8398724,hospital,https://www.openstreetmap.org/?mlat=18.519051&mlon=73.8398724#map=18/18.519051/73.8398724,0,48.831841235842845,504.19814915947836,5.683858102289239,0
"Naik Hospital, Pune",18.5102879,73.8594694,hospital,https://www.openstreetmap.org/?mlat=18.5102879&mlon=73.8594694#map=18/18.5102879/73.8594694,0,174.0417953915841,775.0776426162458,2.9623292247129216,0
Satyanand Hospital,18.4707709,73.8886878,hospital,https://www.openstreetmap.org/?mlat=18.4707709&mlon=73.8886878#map=18/18.4707709/73.8886878,1,130.4607198520522,748.7949061493414,8.690718953162666,0
Bora Hospital,18.511463,73.8625468,hospital,https://www.openstreetmap.org/?mlat=18.511463&mlon=73.8625468#map=18/18.511463/73.8625468,0,145.35869931730997,712.2791454255396,3.3664003501508857,0
Patil Hospital,18.4791887,73.8247015,hospital,https://www.openstreetmap.org/?mlat=18.4791887&mlon=73.8247015#map=18/18.4791887/73.8247015,1,253.671621259736,847.5078639261326,5.9669117531622495,0
Golwilkar Metropolis Heath Service (India) Pvt Ltd,18.5181296,73.8344155,hospital,https://www.openstreetmap.org/?mlat=18.5181296&mlon=73.8344155#map=18/18.5181296/73.8344155,0,224.33155988297932,778.263807521864,9.654535307857367,0
Paranjape Hospital,18.5143979,73.8460515,hospital,https://www.openstreetmap.org/?mlat=18.5143979&mlon=73.8460515#map=18/18.5143979/73.8460515,0,290.62165618963786,646.2757681110728,8.706222290900044,0
Pulse Hospital,18.4594817,73.8233106,hospital,https://www.openstreetmap.org/?mlat=18.4594817&mlon=73.8233106#map=18/18.4594817/73.8233106,1,195.00253072664196,643.0278612357595,8.712598017624533,0
ONP Leela Hospital,18.5329215,73.8468085,hospital,https://www.openstreetmap.org/?mlat=18.5329215&mlon=73.8468085#map=18/18.5329215/73.8468085,0,125.35361296752048,883.8205736741372,6.951637574001933,0
Meera Hospital,18.5022882,73.8746894,hospital,https://www.openstreetmap.org/?mlat=18.5022882&mlon=73.8746894#map=18/18.5022882/73.8746894,1,292.23414191810053,839.1980008936036,9.529007376544461,0
Seth Ramdas Shah Memorial Hospital and Research Centre,18.5293628,73.8284091,hospital,https://www.openstreetmap.org/?mlat=18.5293628&mlon=73.8284091#map=18/18.5293628/73.8284091,0,261.7326852459541,625.666611913412,3.7322708851084405,0
Nityanand Rehabilitation and Residential Mental Heal,18.4565508,73.8515434,hospital,https://www.openstreetmap.org/?mlat=18.4565508&mlon=73.8515434#map=18/18.4565508/73.8515434,1,21.61167919752881,568.4961971446031,1.675583803957651,0
Yashda Hospital,18.5168084,73.859535,hospital,https://www.openstreetmap.org/?mlat=18.5168084&mlon=73.859535#map=18/18.5168084/73.859535,0,178.5863231422746,654.0408825937476,6.414151711001069,0
Joglekar Hospital,18.5327524,73.8336359,hospital,https://www.openstreetmap.org/?mlat=18.5327524&mlon=73.8336359#map=18/18.5327524/73.8336359,0,172.9564850914838,743.1425470252648,9.09318272501494,0
Chaitanya Centre For Psychological Help,18.4795175,73.8043727,hospital,https://www.openstreetmap.org/?mlat=18.4795175&mlon=73.8043727#map=18/18.4795175/73.8043727,1,126.51096372136966,527.8488822056524,5.898151231900296,0
Mothercare Hospital,18.4872463,73.8760145,hospital,https://www.openstreetmap.org/?mlat=18.4872463&mlon=73.8760145#map=18/18.4872463/73.8760145,1,242.5033123348075,828.6633687335441,5.845507874668792,0
"Sahyadri Hospital, Bibvewadi",18.4781739,73.862105,hospital,https://www.openstreetmap.org/?mlat=18.4781739&mlon=73.862105#map=18/18.4781739/73.862105,1,143.86020685993407,798.3748789716537,6.09934599374358,0
Argade Infertility and Endoscopic Surgery and Icu Center,18.5017523,73.8102353,hospital,https://www.openstreetmap.org/?mlat=18.5017523&mlon=73.8102353#map=18/18.5017523/73.8102353,1,118.66789244539495,880.8133016865373,6.550208071405632,0
Shree Balaji Eye Hospital,18.4910283,73.8581684,hospital,https://www.openstreetmap.org/?mlat=18.4910283&mlon=73.8581684#map=18/18.4910283/73.8581684,1,232.8943261611917,584.1229050583706,0.8722978641791279,1
Chaitanya Stem Cell Center,18.5000189,73.8503981,hospital,https://www.openstreetmap.org/?mlat=18.5000189&mlon=73.8503981#map=18/18.5000189/73.8503981,1,150.10783018922064,723.8010953793813,4.310344302684227,0
"Pawar Hospital, Pune",18.4658771,73.8601231,hospital,https://www.openstreetmap.org/?mlat=18.4658771&mlon=73.8601231#map=18/18.4658771/73.8601231,1,22.96066425560056,800.424900370429,0.6202495211268078,0
Galaxy Care Laparoscopy Institute Pvt. Ltd.,18.5110031,73.837105,hospital,https://www.openstreetmap.org/?mlat=18.5110031&mlon=73.837105#map=18/18.5110031/73.837105,0,145.263172556246,895.9408840825893,0.5135397670903119,0
Punarvasu Chikitsalaya,18.5284781,73.8423179,hospital,https://www.openstreetmap.org/?mlat=18.5284781&mlon=73.8423179#map=18/18.5284781/73.8423179,0,207.41313536556865,818.9886680811928,9.75497137631937,0
"Sangam Hospital, Pune",18.4757105,73.8578707,hospital,https://www.openstreetmap.org/?mlat=18.4757105&mlon=73.8578707#map=18/18.4757105/73.8578707,1,222.20840546485894,896.5942222088682,4.944315812022879,0
Umarji Hospital,18.5119352,73.857758,hospital,https://www.openstreetmap.org/?mlat=18.5119352&mlon=73.857758#map=18/18.5119352/73.857758,0,78.62596497667806,669.6060720446059,5.111473022142071,0
Shashwat Hospital,18.4948349,73.8135271,hospital,https://www.openstreetmap.org/?mlat=18.4948349&mlon=73.8135271#map=18/18.4948349/73.8135271,1,44.66952768744591,883.7662907491167,1.9237608678012363,0
Indira Maternity Home,18.5122188,73.8762961,hospital,https://www.openstreetmap.org/?mlat=18.5122188&mlon=73.8762961#map=18/18.5122188/73.8762961,0,178.62948389211311,893.9495332279829,9.46510502078249,0
Ranka Hospital,18.4950117,73.861886,hospital,https://www.openstreetmap.org/?mlat=18.4950117&mlon=73.861886#map=18/18.4950117/73.861886,1,151.9277255023588,591.462823307287,4.418519578770919,0
Bhide Hospital,18.5048666,73.8443399,hospital,https://www.openstreetmap.org/?mlat=18.5048666&mlon=73.8443399#map=18/18.5048666/73.8443399,1,158.27393913419039,560.7047682902794,9.087548390984434,0
Poona Laser Center,18.5123701,73.8381752,hospital,https://www.openstreetmap.org/?mlat=18.5123701&mlon=73.8381752#map=18/18.5123701/73.8381752,0,252.04750501439506,749.9466672726595,3.387107908415147,0
Siddhant Maternity Home,18.4792694,73.8566422,hospital,https://www.openstreetmap.org/?mlat=18.4792694&mlon=73.8566422#map=18/18.4792694/73.8566422,1,20.66797591581536,581.9400083348122,7.89516696418964,0
Amit Hospital,18.5463494,73.8880362,hospital,https://www.openstreetmap.org/?mlat=18.5463494&mlon=73.8880362#map=18/18.5463494/73.8880362,0,98.46873438440575,674.0681375242885,6.377656281744822,0
"Purandare Hospital, Pune",18.5022916,73.8586646,hospital,https://www.openstreetmap.org/?mlat=18.5022916&mlon=73.8586646#map=18/18.5022916/73.8586646,1,122.58801294533464,599.6949584086661,7.66920226136281,0
Pramodini Urology Foundation,18.5199125,73.8410217,hospital,https://www.openstreetmap.org/?mlat=18.5199125&mlon=73.8410217#map=18/18.5199125/73.8410217,0,299.72634854709185,507.4165216245544,0.4602369380853011,1
Harsh Hospital,18.4802908,73.8662057,hospital,https://www.openstreetmap.org/?mlat=18.4802908&mlon=73.8662057#map=18/18.4802908/73.8662057,1,148.70636931032786,783.5579793549565,6.913141455214706,0
Moolanis Eye Care Centre,18.5057737,73.8783494,hospital,https://www.openstreetmap.org/?mlat=18.5057737&mlon=73.8783494#map=18/18.5057737/73.8783494,1,294.7411196702777,687.2354054733861,4.515385814556132,0
Gokhale Hospital,18.502172,73.857062,hospital,https://www.openstreetmap.org/?mlat=18.502172&mlon=73.857062#map=18/18.502172/73.857062,1,162.06025066461433,574.3864683245431,3.214908080900165,0
Wankhede Hospital,18.4724656,73.8888207,hospital,https://www.openstreetmap.org/?mlat=18.4724656&mlon=73.8888207#map=18/18.4724656/73.8888207,1,144.24560435170096,799.3928899848997,3.322754375892144,0
Pune Fertility Center,18.5287757,73.8479868,hospital,https://www.openstreetmap.org/?mlat=18.5287757&mlon=73.8479868#map=18/18.5287757/73.8479868,0,158.27094413353973,695.2142733783642,1.185796832663173,1
Jagtap Hospital,18.4774187,73.8237825,hospital,https://www.openstreetmap.org/?mlat=18.4774187&mlon=73.8237825#map=18/18.4774187/73.8237825,1,10.139095995287795,899.802176017902,4.341087786285296,0
Joshi Hospital,18.5171772,73.8332118,hospital,https://www.openstreetmap.org/?mlat=18.5171772&mlon=73.8332118#map=18/18.5171772/73.8332118,0,45.25390129513925,631.5462656705131,2.32361982928762,0
Dr Patwardhan Hospital,18.4573434,73.8507776,hospital,https://www.openstreetmap.org/?mlat=18.4573434&mlon=73.8507776#map=18/18.4573434/73.8507776,1,40.82721353608013,763.142245573551,9.208481618495933,0
Shri Samarth Hospital,18.5180616,73.865867,hospital,https://www.openstreetmap.org/?mlat=18.5180616&mlon=73.865867#map=18/18.5180616/73.865867,0,56.833791559867244,583.1279695384987,2.912898344545755,0
Kamal Netra Rugnalaya,18.4949914,73.81219,hospital,https://www.openstreetmap.org/?mlat=18.4949914&mlon=73.81219#map=18/18.4949914/73.81219,1,0.5437451356229972,594.4018509642445,9.424415487813304,0
Kulkarni Hospital and Diagnostic Centre,18.4851967,73.8092832,hospital,https://www.openstreetmap.org/?mlat=18.4851967&mlon=73.8092832#map=18/18.4851967/73.8092832,1,183.70561338955292,508.85637517763587,3.715231138703042,0
Khares Eye Institute,18.5145168,73.8317379,hospital,https://www.openstreetmap.org/?mlat=18.5145168&mlon=73.8317379#map=18/18.5145168/73.8317379,0,84.07090442383239,551.5168826014981,2.234623444783436,0
Dr Chavans Fracture and Orthopaedic Center,18.4785979,73.8238536,hospital,https://www.openstreetmap.org/?mlat=18.4785979&mlon=73.8238536#map=18/18.4785979/73.8238536,1,92.56467378149323,629.7219430950349,6.608859846442826,0
Gultekdi Nursing and Maternity Home,18.4926804,73.8685472,hospital,https://www.openstreetmap.org/?mlat=18.4926804&mlon=73.8685472#map=18/18.4926804/73.8685472,1,144.17138797896,842.2550427386926,4.8209893437584705,0
Ashakiran Hospital,18.5158253,73.8474959,hospital,https://www.openstreetmap.org/?mlat=18.5158253&mlon=73.8474959#map=18/18.5158253/73.8474959,0,173.91089604188878,513.3616398335381,2.077582057222803,1
Sant Dnyaneswar Medical Education Research Centre,18.5137805,73.8476971,hospital,https://www.openstreetmap.org/?mlat=18.5137805&mlon=73.8476971#map=18/18.5137805/73.8476971,0,80.45890565760277,757.9765273868065,4.43923398385828,0
Dr. Karve Childrens Hospital,18.5252254,73.8499763,hospital,https://www.openstreetmap.org/?mlat=18.5252254&mlon=73.8499763#map=18/18.5252254/73.8499763,0,282.45573919027817,556.3903868999987,6.176715125585096,0
Yashashree Maternity and Nursing Home,18.4886651,73.8502412,hospital,https://www.openstreetmap.org/?mlat=18.4886651&mlon=73.8502412#map=18/18.4886651/73.8502412,1,149.2477920912361,771.8989656846751,2.561679356638238,0
Vinayak Netralaya - Pune,18.5105851,73.817981,hospital,https://www.openstreetmap.org/?mlat=18.5105851&mlon=73.817981#map=18/18.5105851/73.817981,0,69.29773497203009,780.0044656042562,9.40670367930711,0
Rahel Hospital,18.5152906,73.8754553,hospital,https://www.openstreetmap.org/?mlat=18.5152906&mlon=73.8754553#map=18/18.5152906/73.8754553,0,282.0577904731429,731.8492905871404,4.347889287183908,0
Nachiket Hospital Pvt Ltd,18.5076864,73.831062,hospital,https://www.openstreetmap.org/?mlat=18.5076864&mlon=73.831062#map=18/18.5076864/73.831062,1,263.1469075172102,742.0491780996409,4.671448474868053,0
Shahade Hospital,18.4978682,73.8537562,hospital,https://www.openstreetmap.org/?mlat=18.4978682&mlon=73.8537562#map=18/18.4978682/73.8537562,1,75.86227362679864,807.1050888623431,8.420844174766643,0
Dada Laser Eye Institute,18.5109382,73.8799037,hospital,https://www.openstreetmap.org/?mlat=18.5109382&mlon=73.8799037#map=18/18.5109382/73.8799037,0,260.29014157799264,699.2937487644745,7.1239912577933655,0
Dr.Prakash Katariya Laser Cure,18.5223591,73.8441311,hospital,https://www.openstreetmap.org/?mlat=18.5223591&mlon=73.8441311#map=18/18.5223591/73.8441311,0,257.0585663050831,750.1035950146343,0.6426735469660727,0
"Siddharth Hospital, Pune",18.4900578,73.8684641,hospital,https://www.openstreetmap.org/?mlat=18.4900578&mlon=73.8684641#map=18/18.4900578/73.8684641,1,147.34151650670418,626.02765077722,3.8791208230820127,0
Dr.Purohit Nursing Home,18.490344,73.8443121,hospital,https://www.openstreetmap.org/?mlat=18.490344&mlon=73.8443121#map=18/18.490344/73.8443121,1,289.86398930517004,701.1064261128332,7.284073532850737,0
Siddhi Hospital and Laproscopy Centre Pvt Ltd,18.464116,73.859008,hospital,https://www.openstreetmap.org/?mlat=18.464116&mlon=73.859008#map=18/18.464116/73.859008,1,10.604412287298626,515.4688054179637,3.343450252820505,0
Suraj Hospital,18.4814034,73.8724713,hospital,https://www.openstreetmap.org/?mlat=18.4814034&mlon=73.8724713#map=18/18.4814034/73.8724713,1,83.39934561042251,664.159781979141,7.604319381639659,0
Chinchanikar Hospital,18.4785438,73.8235485,hospital,https://www.openstreetmap.org/?mlat=18.4785438&mlon=73.8235485#map=18/18.4785438/73.8235485,1,68.65299582452829,628.5613838963909,0.4216010829932726,0
Dr Sarawat Memorial Hospital,18.4705427,73.8878018,hospital,https://www.openstreetmap.org/?mlat=18.4705427&mlon=73.8878018#map=18/18.4705427/73.8878018,1,12.132559021107914,706.9624554151338,6.089514447274961,0
Om Hospital,18.5292449,73.830716,hospital,https://www.openstreetmap.org/?mlat=18.5292449&mlon=73.830716#map=18/18.5292449/73.830716,0,61.75549805348195,876.6143167761638,0.9141612751640704,0
Pune Adventist Hospital;advantist hospital,18.491944,73.8710202,hospital,https://www.openstreetmap.org/?mlat=18.491944&mlon=73.8710202#map=18/18.491944/73.8710202,1,190.40176983847755,510.4285795791649,4.810423614149694,0
Mahajan Hospital,18.4840672,73.857003,hospital,https://www.openstreetmap.org/?mlat=18.4840672&mlon=73.857003#map=18/18.4840672/73.857003,1,49.24719032805277,564.7960636508069,5.963547991523537,0
Om Prasuti Graha,18.5470843,73.8885243,hospital,https://www.openstreetmap.org/?mlat=18.5470843&mlon=73.8885243#map=18/18.5470843/73.8885243,0,42.120570928145916,731.9487012878312,3.0094668129431126,0
Subodh Hospital,18.5035234,73.8137605,hospital,https://www.openstreetmap.org/?mlat=18.5035234&mlon=73.8137605#map=18/18.5035234/73.8137605,1,4.272107998192832,644.4085036103231,8.795127628727652,0
"Pai Hospital, Pune",18.4689649,73.8572026,hospital,https://www.openstreetmap.org/?mlat=18.4689649&mlon=73.8572026#map=18/18.4689649/73.8572026,1,211.46576712594137,654.1311770601208,9.515354349977292,0
Chinmay Institute Of Paediatrics,18.5083289,73.8457009,hospital,https://www.openstreetmap.org/?mlat=18.5083289&mlon=73.8457009#map=18/18.5083289/73.8457009,1,135.9674214480298,734.1248668029292,9.876164353336579,0
Patil Hospital - Pune,18.4797674,73.8251685,hospital,https://www.openstreetmap.org/?mlat=18.4797674&mlon=73.8251685#map=18/18.4797674/73.8251685,1,138.4398881382059,825.5035168523882,1.6944975953879782,0
Shree.J.Hospital,18.4653028,73.864194,hospital,https://www.openstreetmap.org/?mlat=18.4653028&mlon=73.864194#map=18/18.4653028/73.864194,1,186.35844839423962,668.0351681698831,0.17251222290616264,1
Paranjpe Eye Clinic and Eye Surgery Centre,18.5183547,73.8404001,hospital,https://www.openstreetmap.org/?mlat=18.5183547&mlon=73.8404001#map=18/18.5183547/73.8404001,0,55.852715408463496,683.609576330453,0.2965554748355492,0
Ace Hospital,18.504933,73.8303593,hospital,https://www.openstreetmap.org/?mlat=18.504933&mlon=73.8303593#map=18/18.504933/73.8303593,1,36.85550409602952,813.1518703388368,0.1752228146777013,0
Chandra Hospital,18.4522084,73.890656,hospital,https://www.openstreetmap.org/?mlat=18.4522084&mlon=73.890656#map=18/18.4522084/73.890656,1,163.97364064038376,691.7293000914676,1.9403728170710166,1
Global Hospital & Research Institute,18.5013237,73.8410144,hospital,https://www.openstreetmap.org/?mlat=18.5013237&mlon=73.8410144#map=18/18.5013237/73.8410144,1,195.20176939489522,696.2648492228346,1.1348562847331334,1
"Lokmanya Hospital, Pune",18.5089079,73.834105,hospital,https://www.openstreetmap.org/?mlat=18.5089079&mlon=73.834105#map=18/18.5089079/73.834105,1,28.716466561684662,786.6553148961027,8.065982154647436,0
Sai Sneh Hospital and Diagnostic Centre Pvt Ltd,18.4465478,73.8597831,hospital,https://www.openstreetmap.org/?mlat=18.4465478&mlon=73.8597831#map=18/18.4465478/73.8597831,1,142.98603167261774,791.5473284313689,3.984988033884509,0
"Lodha Hospital, Pune",18.4833651,73.8004071,hospital,https://www.openstreetmap.org/?mlat=18.4833651&mlon=73.8004071#map=18/18.4833651/73.8004071,1,199.20263022777243,863.3053612409481,1.6995056505692452,0
"Adarsh Hospital, Pune",18.4541274,73.8881166,hospital,https://www.openstreetmap.org/?mlat=18.4541274&mlon=73.8881166#map=18/18.4541274/73.8881166,1,52.579216238138656,823.7673147350121,6.939502078354884,0
Dhanwantari Hospital,18.5194471,73.8658999,hospital,https://www.openstreetmap.org/?mlat=18.5194471&mlon=73.8658999#map=18/18.5194471/73.8658999,0,173.03346772656712,607.6310746213755,8.334426153371849,0
Pungliya Hospital,18.5226796,73.8508487,hospital,https://www.openstreetmap.org/?mlat=18.5226796&mlon=73.8508487#map=18/18.5226796/73.8508487,0,170.1226401826426,832.1032903021809,2.541899996741873,0
B.J.Medical College and Sassoon Hospital,18.526235,73.871161,hospital,https://www.openstreetmap.org/?mlat=18.526235&mlon=73.871161#map=18/18.526235/73.871161,0,221.08938027263503,524.4573339954975,8.407589633823957,0
Karne Hospital Pvt Ltd,18.4954696,73.8583709,hospital,https://www.openstreetmap.org/?mlat=18.4954696&mlon=73.8583709#map=18/18.4954696/73.8583709,1,270.9513943768853,855.3001923561073,0.3770412430548431,0
Vibhute Hospital,18.5040492,73.8518391,hospital,https://www.openstreetmap.org/?mlat=18.5040492&mlon=73.8518391#map=18/18.5040492/73.8518391,1,156.95764116725343,602.5216366571386,6.351321512352674,0
Kulkarni Endo Surgery Institute and Reconstructive Urology Centre,18.5097841,73.8029893,hospital,https://www.openstreetmap.org/?mlat=18.5097841&mlon=73.8029893#map=18/18.5097841/73.8029893,1,66.92459727039066,738.2063590529608,3.3442124712535612,0
Vinnayak Hospital,18.4854879,73.8717458,hospital,https://www.openstreetmap.org/?mlat=18.4854879&mlon=73.8717458#map=18/18.4854879/73.8717458,1,11.05610358242799,654.9943178620028,1.7795009620364899,0
Shah Hospital,18.5486475,73.8893055,hospital,https://www.openstreetmap.org/?mlat=18.5486475&mlon=73.8893055#map=18/18.5486475/73.8893055,0,289.4012942204592,871.4848842147926,9.45328856658826,0
Pune City Eye Hospital,18.5298629,73.8760869,hospital,https://www.openstreetmap.org/?mlat=18.5298629&mlon=73.8760869#map=18/18.5298629/73.8760869,0,161.62359524162508,872.4707718715961,6.65894186130791,0
Talesara Hospital,18.5498719,73.8887711,hospital,https://www.openstreetmap.org/?mlat=18.5498719&mlon=73.8887711#map=18/18.5498719/73.8887711,0,266.4164103208987,636.9559912435819,2.5729411324158447,1
Deodhar Eye Hospital,18.5114494,73.836472,hospital,https://www.openstreetmap.org/?mlat=18.5114494&mlon=73.836472#map=18/18.5114494/73.836472,0,227.0976245322248,667.4078315681518,5.918321186016076,0
Godbole Hospital,18.5112078,73.8513154,hospital,https://www.openstreetmap.org/?mlat=18.5112078&mlon=73.8513154#map=18/18.5112078/73.8513154,0,18.61448616487087,514.0666644077461,4.75992924448671,0
Kataria Hospital,18.545411,73.8855249,hospital,https://www.openstreetmap.org/?mlat=18.545411&mlon=73.8855249#map=18/18.545411/73.8855249,0,268.35026105494507,834.3475220266898,7.521010132354905,0
Dr.Pawar Eye Hospital,18.5092716,73.8449264,hospital,https://www.openstreetmap.org/?mlat=18.5092716&mlon=73.8449264#map=18/18.5092716/73.8449264,1,36.06985480836481,753.2852014359818,7.251449893971499,0
Nm Wadia Institute Of Cardiology,18.5307444,73.8771894,hospital,https://www.openstreetmap.org/?mlat=18.5307444&mlon=73.8771894#map=18/18.5307444/73.8771894,0,127.65344346661298,711.5482888592677,8.956564996666373,0
Bhandari Maternity and Nursing Home,18.4777164,73.8234164,hospital,https://www.openstreetmap.org/?mlat=18.4777164&mlon=73.8234164#map=18/18.4777164/73.8234164,1,281.8758251477466,619.102505754074,8.689417541877518,0
"Samarth Hospital, Pune",18.5195234,73.862059,hospital,https://www.openstreetmap.org/?mlat=18.5195234&mlon=73.862059#map=18/18.5195234/73.862059,0,28.527524971599494,891.6472663627582,1.847651846579591,0
Z Y - Vision,18.5247371,73.8408494,hospital,https://www.openstreetmap.org/?mlat=18.5247371&mlon=73.8408494#map=18/18.5247371/73.8408494,0,178.21776687293078,665.7128212294642,5.415643406291368,0
"Shreeyash Hospital, Pune",18.5155666,73.8418673,hospital,https://www.openstreetmap.org/?mlat=18.5155666&mlon=73.8418673#map=18/18.5155666/73.8418673,0,229.77003768567184,650.4476541504076,3.7778477408276014,0
Dr. Todkar Hospital,18.5229518,73.8639473,hospital,https://www.openstreetmap.org/?mlat=18.5229518&mlon=73.8639473#map=18/18.5229518/73.8639473,0,163.62981580318473,532.5146135963116,3.7104060969742103,0
Khenat Hospital and Maternity Home,18.4891281,73.8138248,hospital,https://www.openstreetmap.org/?mlat=18.4891281&mlon=73.8138248#map=18/18.4891281/73.8138248,1,188.7716173323351,758.1388647830461,1.1282856877571956,0
Manoj Clinic / Gore Hospital,18.5117788,73.8487867,hospital,https://www.openstreetmap.org/?mlat=18.5117788&mlon=73.8487867#map=18/18.5117788/73.8487867,0,138.91464100642534,506.0883595986208,9.48436373389676,0
Pharande Eye Hospital,18.4777316,73.8239729,hospital,https://www.openstreetmap.org/?mlat=18.4777316&mlon=73.8239729#map=18/18.4777316/73.8239729,1,228.6918855423643,517.220266921379,3.544146196709952,0
Vishwaniranjan Eye Hospital,18.5113846,73.8458276,hospital,https://www.openstreetmap.org/?mlat=18.5113846&mlon=73.8458276#map=18/18.5113846/73.8458276,0,237.8316482492566,844.6878081018315,4.894163487231053,0
Shree Nursing and Maternity Home,18.4845772,73.8159759,hospital,https://www.openstreetmap.org/?mlat=18.4845772&mlon=73.8159759#map=18/18.4845772/73.8159759,1,37.65362321582485,755.6554976365372,2.9516981299922787,0
"Ram Krishna Hospital, Pune",18.5092455,73.8483354,hospital,https://www.openstreetmap.org/?mlat=18.5092455&mlon=73.8483354#map=18/18.5092455/73.8483354,1,88.31969595615756,886.0786201237386,2.961823786363129,0
Shatayu Hospital,18.4664871,73.857691,hospital,https://www.openstreetmap.org/?mlat=18.4664871&mlon=73.857691#map=18/18.4664871/73.857691,1,280.23904459478666,874.9329971759943,0.8040356716855801,0
Centre For Laproscopy Surgery,18.5207937,73.8452496,hospital,https://www.openstreetmap.org/?mlat=18.5207937&mlon=73.8452496#map=18/18.5207937/73.8452496,0,55.42451761430124,504.3412942232467,4.5809348213208985,0
Kawedia Hospital,18.5070645,73.8782608,hospital,https://www.openstreetmap.org/?mlat=18.5070645&mlon=73.8782608#map=18/18.5070645/73.8782608,1,130.23874582012516,838.3917957632834,9.095787536405856,0
Ambekar Hospital,18.5054055,73.817541,hospital,https://www.openstreetmap.org/?mlat=18.5054055&mlon=73.817541#map=18/18.5054055/73.817541,1,274.43347303557044,804.6317091936442,5.144238111637768,0
Kamaladevi Maternity Hospital & Research Home,18.467118,73.8190001,hospital,https://www.openstreetmap.org/?mlat=18.467118&mlon=73.8190001#map=18/18.467118/73.8190001,1,128.67867427610216,711.1897412122221,6.88558328123051,0
Harijivan Hospital,18.5001435,73.8542376,hospital,https://www.openstreetmap.org/?mlat=18.5001435&mlon=73.8542376#map=18/18.5001435/73.8542376,1,286.17771182642514,779.7501233312576,4.194669549321816,0
Dugad Hospital Pvt Ltd,18.4909481,73.8580129,hospital,https://www.openstreetmap.org/?mlat=18.4909481&mlon=73.8580129#map=18/18.4909481/73.8580129,1,235.58360905593574,762.8471632957335,6.256521046680595,0
Agrawal Hospital,18.4891931,73.8140419,hospital,https://www.openstreetmap.org/?mlat=18.4891931&mlon=73.8140419#map=18/18.4891931/73.8140419,1,162.7916629770488,638.319147613369,9.21757046950565,0
PMC ARMED FORCE MEDICAL COLLEGE(AFMC),18.503916,73.890117,hospital,https://www.openstreetmap.org/?mlat=18.503916&mlon=73.890117#map=18/18.503916/73.890117,1,219.1502242418413,532.6664541201744,2.5796541201281764,1
Bharati Vidyapeeth Dental College and Hospital,18.457239,73.855026,hospital,https://www.openstreetmap.org/?mlat=18.457239&mlon=73.855026#map=18/18.457239/73.855026,1,169.49325485602972,804.8698578523898,1.0919791611889396,0
Murlidhar Pandurang Laigude Hospital,18.4623918,73.804957,hospital,https://www.openstreetmap.org/?mlat=18.4623918&mlon=73.804957#map=18/18.4623918/73.804957,1,296.00416846470273,768.2720731472107,1.223661743162019,0
Late Anandibai Narhar Gadgil Hospital,18.5024088,73.8386813,hospital,https://www.openstreetmap.org/?mlat=18.5024088&mlon=73.8386813#map=18/18.5024088/73.8386813,1,219.73831533372757,844.952821443597,7.880232610561727,0
Sutika Seva Mandir,18.513913,73.846551,hospital,https://www.openstreetmap.org/?mlat=18.513913&mlon=73.846551#map=18/18.513913/73.846551,0,133.05902008676637,844.2812216683355,3.389737346618289,0
Sasoon Hospital,18.521872,73.873118,hospital,https://www.openstreetmap.org/?mlat=18.521872&mlon=73.873118#map=18/18.521872/73.873118,0,239.49905890480406,634.1012430520713,0.9672494781275598,1
Colony Nursing Home,18.5030769,73.8446917,hospital,https://www.openstreetmap.org/?mlat=18.5030769&mlon=73.8446917#map=18/18.5030769/73.8446917,1,6.987544951379599,504.2206384434705,7.816447297856145,0
Vaibhav Hospital,18.5490315,73.8887874,hospital,https://www.openstreetmap.org/?mlat=18.5490315&mlon=73.8887874#map=18/18.5490315/73.8887874,0,221.55484263028399,501.452646437083,3.780861624775115,0
Manas Hospital,18.449772,73.837835,hospital,https://www.openstreetmap.org/?mlat=18.449772&mlon=73.837835#map=18/18.449772/73.837835,1,224.96163221205668,795.0344703517835,6.905148855790346,0
Shree Sai Prasad Hospital,18.4495732,73.8484382,hospital,https://www.openstreetmap.org/?mlat=18.4495732&mlon=73.8484382#map=18/18.4495732/73.8484382,1,136.59357496158376,771.8752208927126,0.8333564275440308,0
Petals Hospital,18.5492968,73.8888427,hospital,https://www.openstreetmap.org/?mlat=18.5492968&mlon=73.8888427#map=18/18.5492968/73.8888427,0,196.8568662054497,658.1185514349295,3.1049329242673185,0
Shwas Multispeciality Hospital,18.4468202,73.8373703,hospital,https://www.openstreetmap.org/?mlat=18.4468202&mlon=73.8373703#map=18/18.4468202/73.8373703,1,222.80799114666087,808.497193747548,0.40917190021294014,0
N. M. Wadia Hospital,18.530716,73.876952,hospital,https://www.openstreetmap.org/?mlat=18.530716&mlon=73.876952#map=18/18.530716/73.876952,0,183.10212052850267,657.0460367684361,7.4747518484253686,0
Shahu Hospital,18.4820937,73.8993556,hospital,https://www.openstreetmap.org/?mlat=18.4820937&mlon=73.8993556#map=18/18.4820937/73.8993556,1,248.69680551030544,691.5294638183595,0.18497831446135038,1
Mayureshwar Multispeciality Hospital,18.4488442,73.832632,hospital,https://www.openstreetmap.org/?mlat=18.4488442&mlon=73.832632#map=18/18.4488442/73.832632,1,137.67184115286673,745.0599326288739,8.678775116760525,0
Dr. Shraddha Angal,18.540958,73.829755,hospital,https://www.openstreetmap.org/?mlat=18.540958&mlon=73.829755#map=18/18.540958/73.829755,0,284.9213192657952,890.3538520548473,0.8341161119998253,0
Giridhar Hospital,18.448229,73.83316,hospital,https://www.openstreetmap.org/?mlat=18.448229&mlon=73.83316#map=18/18.448229/73.83316,1,178.34093716773728,866.1985235588326,9.227284840144447,0
New Command Hospital,18.4956457,73.884521,hospital,https://www.openstreetmap.org/?mlat=18.4956457&mlon=73.884521#map=18/18.4956457/73.884521,1,164.41543161375208,665.8774399396513,8.440407501299665,0
Bhakare Super Speciality Hospital,18.448115,73.849133,hospital,https://www.openstreetmap.org/?mlat=18.448115&mlon=73.849133#map=18/18.448115/73.849133,1,177.5278354161154,706.2423403494347,6.901763503195041,0
Chordiya Nursing Home,18.4581135,73.8781846,hospital,https://www.openstreetmap.org/?mlat=18.4581135&mlon=73.8781846#map=18/18.4581135/73.8781846,1,280.63797976459875,664.3869101024463,9.073246896844351,0
Anup Hospital,18.498738,73.838315,hospital,https://www.openstreetmap.org/?mlat=18.498738&mlon=73.838315#map=18/18.498738/73.838315,1,78.30564378419346,661.2503495223785,4.389517890026058,0
Apex Superspeciality Hospital,18.5075984,73.8439447,hospital,https://www.openstreetmap.org/?mlat=18.5075984&mlon=73.8439447#map=18/18.5075984/73.8439447,1,34.13795977595003,875.9630342439748,6.671368940721551,0
Date Hospital,18.51024,73.8522294,hospital,https://www.openstreetmap.org/?mlat=18.51024&mlon=73.8522294#map=18/18.51024/73.8522294,0,299.3344464798955,724.2150457927808,3.0151459416672735,0
Morya General Hospital,18.5147901,73.8484343,hospital,https://www.openstreetmap.org/?mlat=18.5147901&mlon=73.8484343#map=18/18.5147901/73.8484343,0,182.11071652563282,813.941700636145,7.48377971429457,0
Suman Hospital,18.492348,73.853457,hospital,https://www.openstreetmap.org/?mlat=18.492348&mlon=73.853457#map=18/18.492348/73.853457,1,61.24291874993057,763.8865325225354,2.2523306045897327,0
Lifeline Hospital,18.4723283,73.8923643,hospital,https://www.openstreetmap.org/?mlat=18.4723283&mlon=73.8923643#map=18/18.4723283/73.8923643,1,279.42306971785064,600.880953973023,9.535045324390389,0
Sabane Hospital,18.5107027,73.8434338,hospital,https://www.openstreetmap.org/?mlat=18.5107027&mlon=73.8434338#map=18/18.5107027/73.8434338,0,46.26498275288626,870.9875102704175,1.2468633309303156,0
Kamat Hospital,18.512445,73.869389,hospital,https://www.openstreetmap.org/?mlat=18.512445&mlon=73.869389#map=18/18.512445/73.869389,0,119.39505022690321,638.6235973422972,8.63720697478151,0
Bindu Madhav Thakarey Hospital,18.496127,73.817109,hospital,https://www.openstreetmap.org/?mlat=18.496127&mlon=73.817109#map=18/18.496127/73.817109,1,106.54735446030024,532.7151321825459,0.35935944635651307,0
National Hospital,18.4714238,73.8887261,hospital,https://www.openstreetmap.org/?mlat=18.4714238&mlon=73.8887261#map=18/18.4714238/73.8887261,1,21.270530034755375,766.4679054458395,8.72032244399065,0
Meenatai Thakre Maternity Home,18.47396,73.889134,hospital,https://www.openstreetmap.org/?mlat=18.47396&mlon=73.889134#map=18/18.47396/73.889134,1,259.22275510137075,765.5624496761689,0.6563113341631532,0
Bhagirathi Children's Hospital,18.4947224,73.8229041,hospital,https://www.openstreetmap.org/?mlat=18.4947224&mlon=73.8229041#map=18/18.4947224/73.8229041,1,179.39885012704698,674.4702302714059,3.821865430752057,0
Vishranti Hospital,18.5086317,73.8744506,hospital,https://www.openstreetmap.org/?mlat=18.5086317&mlon=73.8744506#map=18/18.5086317/73.8744506,1,86.99273444473748,874.204492098875,4.3934904046271575,0
Matru Seva Hospital;Pacharne Hospital,18.516314,73.871996,hospital,https://www.openstreetmap.org/?mlat=18.516314&mlon=73.871996#map=18/18.516314/73.871996,0,25.264177206694526,697.6279705468502,0.31831705969051494,0
Shraddha Hospital,18.4909252,73.845933,hospital,https://www.openstreetmap.org/?mlat=18.4909252&mlon=73.845933#map=18/18.4909252/73.845933,1,138.75459660706494,853.5337586381543,9.729553118977464,0
Purohit Hospital,18.4975587,73.8513176,hospital,https://www.openstreetmap.org/?mlat=18.4975587&mlon=73.8513176#map=18/18.4975587/73.8513176,1,88.41140017813962,575.0525106329962,2.097685962180135,0
Prerna Hospital,18.4553105,73.8690108,hospital,https://www.openstreetmap.org/?mlat=18.4553105&mlon=73.8690108#map=18/18.4553105/73.8690108,1,293.59597447440666,698.8903743707856,9.803557555718069,0
Bapat Hospital,18.530365,73.842063,hospital,https://www.openstreetmap.org/?mlat=18.530365&mlon=73.842063#map=18/18.530365/73.842063,0,119.62275505216408,609.0645486258304,0.9168894840763397,0
Shivneri Hospital,18.449571,73.85723,hospital,https://www.openstreetmap.org/?mlat=18.449571&mlon=73.85723#map=18/18.449571/73.85723,1,257.16466261310734,719.750301431126,8.841612728998967,0
New Pune Hospital,18.470806,73.888399,hospital,https://www.openstreetmap.org/?mlat=18.470806&mlon=73.888399#map=18/18.470806/73.888399,1,252.25920073007734,880.099764671369,9.034507385638625,0
Kothari Orthopaedic Hospital,18.4891725,73.8571698,hospital,https://www.openstreetmap.org/?mlat=18.4891725&mlon=73.8571698#map=18/18.4891725/73.8571698,1,177.27148057040623,626.7615457008101,6.995876349621506,0
Kalyani Hospital,18.5046645,73.8592129,hospital,https://www.openstreetmap.org/?mlat=18.5046645&mlon=73.8592129#map=18/18.5046645/73.8592129,1,154.45231786329785,720.4454352430515,0.15029485115674812,0
Kumbhare Hospital,18.5218011,73.8622355,hospital,https://www.openstreetmap.org/?mlat=18.5218011&mlon=73.8622355#map=18/18.5218011/73.8622355,0,19.646804944607744,547.44941848944,6.1271933955347375,0
योगेश हॉस्पिटल,18.510438,73.847875,hospital,https://www.openstreetmap.org/?mlat=18.510438&mlon=73.847875#map=18/18.510438/73.847875,0,36.061161765460525,608.3352278534487,3.11867483885492,0
Gokhale Hospital,18.502188,73.857108,hospital,https://www.openstreetmap.org/?mlat=18.502188&mlon=73.857108#map=18/18.502188/73.857108,1,83.49078037067085,670.3056243205133,7.628962019893493,0
Sai Samarth Hospital,18.5231039,73.8681573,hospital,https://www.openstreetmap.org/?mlat=18.5231039&mlon=73.8681573#map=18/18.5231039/73.8681573,0,103.24772744816714,694.3410941921356,2.2760721515185955,0
Dr. Baba Saheb Ambedkar Hospital;dr baba saheb ambedkar hospital,18.4962994,73.8702072,hospital,https://www.openstreetmap.org/?mlat=18.4962994&mlon=73.8702072#map=18/18.4962994/73.8702072,1,154.28300267384427,884.5808329422637,7.105227791946796,0
Todkar Hospital,18.5107128,73.8660862,hospital,https://www.openstreetmap.org/?mlat=18.5107128&mlon=73.8660862#map=18/18.5107128/73.8660862,0,285.3731824439439,874.6464958371248,5.137399755057767,0
Shaishav Children's Hospital,18.5137927,73.8476204,hospital,https://www.openstreetmap.org/?mlat=18.5137927&mlon=73.8476204#map=18/18.5137927/73.8476204,0,59.59528654370486,613.6266601829909,4.892308742365451,0
Suyash Hospital,18.5001862,73.8124022,hospital,https://www.openstreetmap.org/?mlat=18.5001862&mlon=73.8124022#map=18/18.5001862/73.8124022,1,285.94923841081385,826.4572198032774,6.139109166879127,0
Moraya Nursing Home,18.4472895,73.8662836,hospital,https://www.openstreetmap.org/?mlat=18.4472895&mlon=73.8662836#map=18/18.4472895/73.8662836,1,140.74327936531668,721.2888110447605,2.2230893858115297,0
Swanand Maternity Hospital,18.5297435,73.8339823,hospital,https://www.openstreetmap.org/?mlat=18.5297435&mlon=73.8339823#map=18/18.5297435/73.8339823,0,122.03219819179894,758.5488658457516,2.459860950419619,0
Parasnis Hospital,18.474694,73.858715,hospital,https://www.openstreetmap.org/?mlat=18.474694&mlon=73.858715#map=18/18.474694/73.858715,1,53.485067424865065,734.9326438120601,1.6186916788481753,0
Shintre Hospital,18.5122403,73.8499324,hospital,https://www.openstreetmap.org/?mlat=18.5122403&mlon=73.8499324#map=18/18.5122403/73.8499324,0,96.34742515936284,565.5166576335818,1.120245191447664,0
Alliance Munot Hospital;munot hospital,18.5025447,73.8686993,hospital,https://www.openstreetmap.org/?mlat=18.5025447&mlon=73.8686993#map=18/18.5025447/73.8686993,1,135.5307364857087,800.1490417460651,1.5935690496310861,0
Kalavati Mavale Hospital,18.5150421,73.8464127,hospital,https://www.openstreetmap.org/?mlat=18.5150421&mlon=73.8464127#map=18/18.5150421/73.8464127,0,108.76029855731755,815.4682391643954,4.601158591303653,0
Jeevandhara Multispeciality Hospital,18.4491259,73.8577679,hospital,https://www.openstreetmap.org/?mlat=18.4491259&mlon=73.8577679#map=18/18.4491259/73.8577679,1,162.4114902298886,598.661245856671,7.916532210543203,0
ASG Eye Hospital,18.528932,73.8436351,hospital,https://www.openstreetmap.org/?mlat=18.528932&mlon=73.8436351#map=18/18.528932/73.8436351,0,189.82357369933513,660.1809973898852,2.839055558396071,1
Rode Hospital,18.5091812,73.8149589,hospital,https://www.openstreetmap.org/?mlat=18.5091812&mlon=73.8149589#map=18/18.5091812/73.8149589,1,282.9154033177224,717.9614636607918,6.368648080221555,0
Mantri Hospital,18.505204,73.834167,hospital,https://www.openstreetmap.org/?mlat=18.505204&mlon=73.834167#map=18/18.505204/73.834167,1,119.40570977185773,884.8909270993604,4.2679589798003805,0
Kering Hospital;kering clinic,18.5029885,73.8682087,hospital,https://www.openstreetmap.org/?mlat=18.5029885&mlon=73.8682087#map=18/18.5029885/73.8682087,1,60.33805475778444,564.6679073774704,0.6140682359372007,0
Siddhivinayak Hospital,18.4559009,73.8709944,hospital,https://www.openstreetmap.org/?mlat=18.4559009&mlon=73.8709944#map=18/18.4559009/73.8709944,1,197.23398135591424,805.0348220721859,1.8527003194780578,0
Kirad Hospital,18.5143478,73.868913,hospital,https://www.openstreetmap.org/?mlat=18.5143478&mlon=73.868913#map=18/18.5143478/73.868913,0,43.561795748388086,838.5978298839115,4.0494132817560535,0
Chajed Hospital,18.50451,73.8628189,hospital,https://www.openstreetmap.org/?mlat=18.50451&mlon=73.8628189#map=18/18.50451/73.8628189,1,180.8323935338636,652.1592793402949,6.607550394337504,0
KEM Hospital,18.5200596,73.8669776,hospital,https://www.openstreetmap.org/?mlat=18.5200596&mlon=73.8669776#map=18/18.5200596/73.8669776,0,19.160273149207676,506.2542408894791,6.377473101250409,0
Hope Hospital,18.5126915,73.869516,hospital,https://www.openstreetmap.org/?mlat=18.5126915&mlon=73.869516#map=18/18.5126915/73.869516,0,106.43970862331592,847.6432180420315,8.682929585216488,0
David Sassoon Hospital,18.525279,73.870499,hospital,https://www.openstreetmap.org/?mlat=18.525279&mlon=73.870499#map=18/18.525279/73.870499,0,296.1640672608561,896.4336775964114,4.357597232117216,0
MJM Hospital,18.5245059,73.8438216,hospital,https://www.openstreetmap.org/?mlat=18.5245059&mlon=73.8438216#map=18/18.5245059/73.8438216,0,292.55063262765634,518.8094629356202,7.356621683826475,0
Chavan Hospital,18.502202,73.8584592,hospital,https://www.openstreetmap.org/?mlat=18.502202&mlon=73.8584592#map=18/18.502202/73.8584592,1,239.33608990206756,549.1986627283712,2.3026778118169577,1
dental health care,18.5062067,73.8625971,hospital,https://www.openstreetmap.org/?mlat=18.5062067&mlon=73.8625971#map=18/18.5062067/73.8625971,1,230.04088789645115,565.8414650431782,9.860523738841396,0
ARCUS HOSPITAL,18.4889132,73.8990842,hospital,https://www.openstreetmap.org/?mlat=18.4889132&mlon=73.8990842#map=18/18.4889132/73.8990842,1,182.93839331838464,857.5829342569568,9.746079494494754,0
Sai Allergy asthma Eye Children Hospital,18.4852917,73.8514295,hospital,https://www.openstreetmap.org/?mlat=18.4852917&mlon=73.8514295#map=18/18.4852917/73.8514295,1,221.0385992796995,502.82607669154123,5.552984354009217,0
Sathe Multispeciality Hospital,18.5067869,73.8037337,hospital,https://www.openstreetmap.org/?mlat=18.5067869&mlon=73.8037337#map=18/18.5067869/73.8037337,1,29.442617580507736,817.2775620199269,4.784083179929995,0
"Facethetics - Dental, Facial Cosmetics(BOTOX), & Hair Transplant Clinique",18.5136297,73.8285827,hospital,https://www.openstreetmap.org/?mlat=18.5136297&mlon=73.8285827#map=18/18.5136297/73.8285827,0,177.2566553779988,641.127632001175,0.0630555338453409,1
Morya Multispeciality Hospital,18.4643898,73.8153134,hospital,https://www.openstreetmap.org/?mlat=18.4643898&mlon=73.8153134#map=18/18.4643898/73.8153134,1,52.54835958257241,647.9973970702388,3.2989598549935826,0
Matoshri Ramabai Ambedkar Prasutigriha,18.502785,73.8500051,hospital,https://www.openstreetmap.org/?mlat=18.502785&mlon=73.8500051#map=18/18.502785/73.8500051,1,111.06366258201963,618.829614486579,1.8170159648474093,0
Savitribai Phule Meternity Home,18.5048618,73.8611993,hospital,https://www.openstreetmap.org/?mlat=18.5048618&mlon=73.8611993#map=18/18.5048618/73.8611993,1,206.049334290157,773.9356175801493,3.459003259854818,0
Premchand Oswal Hospital,18.4677248,73.8683031,hospital,https://www.openstreetmap.org/?mlat=18.4677248&mlon=73.8683031#map=18/18.4677248/73.8683031,1,167.73039877467625,846.4443792388556,6.261976710717715,0
"Janata Hospital ,Pune",18.4993855,73.8470078,hospital,https://www.openstreetmap.org/?mlat=18.4993855&mlon=73.8470078#map=18/18.4993855/73.8470078,1,150.43538982900384,777.4645762457998,6.529059619948479,0
"Government Hospital, Dhankawadi",18.4652208,73.8495579,hospital,https://www.openstreetmap.org/?mlat=18.4652208&mlon=73.8495579#map=18/18.4652208/73.8495579,1,187.99091199172648,605.855779052735,7.052014431066902,0
Vasant More Hospital,18.4533972,73.8698521,hospital,https://www.openstreetmap.org/?mlat=18.4533972&mlon=73.8698521#map=18/18.4533972/73.8698521,1,214.25022995220206,749.1985486578517,3.5198392677888823,0
Hazrat Maulana Yunus Sahab Rahmatullah Alaih Dawakhana,18.4482157,73.856594,hospital,https://www.openstreetmap.org/?mlat=18.4482157&mlon=73.856594#map=18/18.4482157/73.856594,1,171.1700304232434,892.6592512211246,8.210346209698539,0
G B Indumati Manilal Khanna Hospital,18.4925761,73.8665946,hospital,https://www.openstreetmap.org/?mlat=18.4925761&mlon=73.8665946#map=18/18.4925761/73.8665946,1,269.84194123193913,528.5749419379714,4.71605208786282,0
Apollo Spectra Hospitals,18.5029796,73.8520221,hospital,https://www.openstreetmap.org/?mlat=18.5029796&mlon=73.8520221#map=18/18.5029796/73.8520221,1,293.3157887401476,787.7972758943245,1.0442933970729174,0
city hospiyal,18.4713114,73.8878684,hospital,https://www.openstreetmap.org/?mlat=18.4713114&mlon=73.8878684#map=18/18.4713114/73.8878684,1,240.9516547199723,782.316559860107,1.8810780388186954,0
Om Hospital in Pune,18.4747094,73.8844764,hospital,https://www.openstreetmap.org/?mlat=18.4747094&mlon=73.8844764#map=18/18.4747094/73.8844764,1,183.96585534119544,653.5797047135773,0.7341532758365421,1
Metropolis Healthcare Ltd,18.5078453,73.8265103,hospital,https://www.openstreetmap.org/?mlat=18.5078453&mlon=73.8265103#map=18/18.5078453/73.8265103,1,3.755432531771219,586.6320300715099,5.520445464765718,0
Joshi Hospital,18.5178773,73.842284,hospital,https://www.openstreetmap.org/?mlat=18.5178773&mlon=73.842284#map=18/18.5178773/73.842284,0,4.2264836446462395,884.6086060334351,7.347721451005796,0
Ruby Hall,18.5334658,73.8769727,hospital,https://www.openstreetmap.org/?mlat=18.5334658&mlon=73.8769727#map=18/18.5334658/73.8769727,0,281.604871453508,768.27250386228,2.121544423627922,0
Aashirwad Hospital,18.479729,73.8282621,hospital,https://www.openstreetmap.org/?mlat=18.479729&mlon=73.8282621#map=18/18.479729/73.8282621,1,10.985612278256053,581.0694285127173,7.017233161761139,0
Todkar Hospital,18.5107733,73.8660853,hospital,https://www.openstreetmap.org/?mlat=18.5107733&mlon=73.8660853#map=18/18.5107733/73.8660853,0,33.244834914434584,709.2878226826788,8.5572162965841,0
Modern Hospital,18.5157161,73.8688388,hospital,https://www.openstreetmap.org/?mlat=18.5157161&mlon=73.8688388#map=18/18.5157161/73.8688388,0,31.05435169353693,849.8141285673878,3.900707429118311,0
mothercare hospital,18.4873135,73.8761077,hospital,https://www.openstreetmap.org/?mlat=18.4873135&mlon=73.8761077#map=18/18.4873135/73.8761077,1,223.88273695438642,705.4565120757113,4.858011768769952,0
metro advanced homeopathy clinic,18.4864264,73.8740424,hospital,https://www.openstreetmap.org/?mlat=18.4864264&mlon=73.8740424#map=18/18.4864264/73.8740424,1,57.010610205432734,871.6659278522263,5.3243571098937394,0
suraj hospital,18.4814426,73.872471,hospital,https://www.openstreetmap.org/?mlat=18.4814426&mlon=73.872471#map=18/18.4814426/73.872471,1,108.15098057165142,849.8939945122476,2.2110269447533106,0
anvi ENT and thyroid clinic,18.4840027,73.8716266,hospital,https://www.openstreetmap.org/?mlat=18.4840027&mlon=73.8716266#map=18/18.4840027/73.8716266,1,158.58217752502273,657.3070725416014,5.469488706402753,0
sharda clinic,18.5012435,73.8663445,hospital,https://www.openstreetmap.org/?mlat=18.5012435&mlon=73.8663445#map=18/18.5012435/73.8663445,1,121.44655583217747,523.0425526517101,1.2174137853392664,0
immunology and rheumatology clinic,18.4958983,73.8886709,hospital,https://www.openstreetmap.org/?mlat=18.4958983&mlon=73.8886709#map=18/18.4958983/73.8886709,1,176.57774748654418,755.8958739328973,6.4927759824150355,0
sahyadri hospital,18.4781663,73.8621023,hospital,https://www.openstreetmap.org/?mlat=18.4781663&mlon=73.8621023#map=18/18.4781663/73.8621023,1,275.59236912072294,779.6361105570941,2.561300435689007,0
harsh hospital,18.4803051,73.8661942,hospital,https://www.openstreetmap.org/?mlat=18.4803051&mlon=73.8661942#map=18/18.4803051/73.8661942,1,165.3402797838221,530.5772139213681,3.677642037917873,0
bhagali clinic and nursing home,18.474674,73.8580682,hospital,https://www.openstreetmap.org/?mlat=18.474674&mlon=73.8580682#map=18/18.474674/73.8580682,1,98.43539068968173,522.5939989777165,6.853467463611066,0
sayar hospital,18.4734893,73.8626065,hospital,https://www.openstreetmap.org/?mlat=18.4734893&mlon=73.8626065#map=18/18.4734893/73.8626065,1,281.49435270749956,792.4067204871355,5.498090688357137,0
isshan orthopedic hospital,18.4728083,73.8631451,hospital,https://www.openstreetmap.org/?mlat=18.4728083&mlon=73.8631451#map=18/18.4728083/73.8631451,1,185.6011020739326,762.3073149371817,4.766391702797044,0
dr kashyab nursing home,18.4705573,73.8643492,hospital,https://www.openstreetmap.org/?mlat=18.4705573&mlon=73.8643492#map=18/18.4705573/73.8643492,1,200.17300133654484,783.9391378780483,6.1479972737002715,0
Unknown,18.4705532,73.8632764,hospital,https://www.openstreetmap.org/?mlat=18.4705532&mlon=73.8632764#map=18/18.4705532/73.8632764,1,16.979223190230353,691.7989202268411,1.9290289801345961,0
Bora Hospital,18.5104549,73.8639446,hospital,https://www.openstreetmap.org/?mlat=18.5104549&mlon=73.8639446#map=18/18.5104549/73.8639446,0,212.5349815131439,590.1056960013087,8.195765366340611,0
kedari Hospital,18.5152955,73.8754518,hospital,https://www.openstreetmap.org/?mlat=18.5152955&mlon=73.8754518#map=18/18.5152955/73.8754518,0,224.21107575156802,553.7913621482135,6.95411426168513,0
Umarji Hospital,18.5119365,73.857759,hospital,https://www.openstreetmap.org/?mlat=18.5119365&mlon=73.857759#map=18/18.5119365/73.857759,0,269.7786277455407,781.7979304212593,0.608682164293145,0
Panchsheel Hospital,18.5140768,73.8692464,hospital,https://www.openstreetmap.org/?mlat=18.5140768&mlon=73.8692464#map=18/18.5140768/73.8692464,0,242.39087230387685,791.2413052383026,0.4730396242266277,0
Sardar Patel Genral Hospital,18.5027364,73.8771188,hospital,https://www.openstreetmap.org/?mlat=18.5027364&mlon=73.8771188#map=18/18.5027364/73.8771188,1,169.84869869099109,595.4763293584972,8.009927010122462,0
Meera Hospital,18.5023171,73.8746937,hospital,https://www.openstreetmap.org/?mlat=18.5023171&mlon=73.8746937#map=18/18.5023171/73.8746937,1,29.285316862222967,833.8651735628141,8.017319464122252,0
Allice Munot Hospital,18.5025502,73.8686991,hospital,https://www.openstreetmap.org/?mlat=18.5025502&mlon=73.8686991#map=18/18.5025502/73.8686991,1,233.48218931952368,545.1466851006908,7.784167621578354,0
Kering Hospital,18.5030034,73.8681299,hospital,https://www.openstreetmap.org/?mlat=18.5030034&mlon=73.8681299#map=18/18.5030034/73.8681299,1,50.94787403973259,882.4105646681012,7.538460247075499,0
G.M Babubbhai Memo Hospital,18.508112,73.8751436,hospital,https://www.openstreetmap.org/?mlat=18.508112&mlon=73.8751436#map=18/18.508112/73.8751436,1,65.22299047284757,894.6835544054993,6.269939444335272,0
Military Hospital,18.4924252,73.8823382,hospital,https://www.openstreetmap.org/?mlat=18.4924252&mlon=73.8823382#map=18/18.4924252/73.8823382,1,145.0044952959765,886.0135600207832,0.44536952436003974,0
CHandralok Hospital,18.4803326,73.8610219,hospital,https://www.openstreetmap.org/?mlat=18.4803326&mlon=73.8610219#map=18/18.4803326/73.8610219,1,175.45028619927425,562.1456594922538,8.69516577126391,0
Sangam Hospital,18.4757475,73.857877,hospital,https://www.openstreetmap.org/?mlat=18.4757475&mlon=73.857877#map=18/18.4757475/73.857877,1,22.219606960760828,603.5198045445777,5.493354556889124,0
Oyster and Pearl Hospital,18.5318931,73.8472769,hospital,https://www.openstreetmap.org/?mlat=18.5318931&mlon=73.8472769#map=18/18.5318931/73.8472769,0,135.67004969538388,549.4561653173205,2.48615939826349,0
Ghaisas ENT Hospital,18.5172397,73.8423562,hospital,https://www.openstreetmap.org/?mlat=18.5172397&mlon=73.8423562#map=18/18.5172397/73.8423562,0,78.68683247899064,814.0871676924635,3.1349320094357336,0
Phadke Hospital,18.5183149,73.843879,hospital,https://www.openstreetmap.org/?mlat=18.5183149&mlon=73.843879#map=18/18.5183149/73.843879,0,41.22999312608419,844.1289390829647,6.248143860965572,0
Seth Tarachand Hospital,18.5177725,73.864031,hospital,https://www.openstreetmap.org/?mlat=18.5177725&mlon=73.864031#map=18/18.5177725/73.864031,0,74.71039331114709,868.105744151357,6.2662240034537415,0
Shre Samarth Hospital,18.5180497,73.8658612,hospital,https://www.openstreetmap.org/?mlat=18.5180497&mlon=73.8658612#map=18/18.5180497/73.8658612,0,69.8348539675943,701.8870018948489,8.30294680108085,0
Ruby Hall Clinic,18.5327841,73.8773654,hospital,https://www.openstreetmap.org/?mlat=18.5327841&mlon=73.8773654#map=18/18.5327841/73.8773654,0,121.10698711644201,787.8343804543191,8.473625488370235,0
Red blood hospital,18.5273893,73.8710163,hospital,https://www.openstreetmap.org/?mlat=18.5273893&mlon=73.8710163#map=18/18.5273893/73.8710163,0,97.55567055834636,703.4175042235142,0.24271345655759835,0
Nityashraddha super speciality hospital,18.5278495,73.8760898,hospital,https://www.openstreetmap.org/?mlat=18.5278495&mlon=73.8760898#map=18/18.5278495/73.8760898,0,4.809759071126285,881.9784801018444,0.08594296938482682,0
N. M. Wadia Institute of Cardiology,18.5307461,73.8771922,hospital,https://www.openstreetmap.org/?mlat=18.5307461&mlon=73.8771922#map=18/18.5307461/73.8771922,0,209.38134360525737,738.869401391689,0.8056176591428954,0
WEST VALLEY MULTISPECIALITY HOSPITAL PVT LTD,18.5351432,73.8765318,hospital,https://www.openstreetmap.org/?mlat=18.5351432&mlon=73.8765318#map=18/18.5351432/73.8765318,0,298.3507268078977,836.6266225450561,3.245602111786541,0
Kawediya Hospital,18.5242312,73.8627099,hospital,https://www.openstreetmap.org/?mlat=18.5242312&mlon=73.8627099#map=18/18.5242312/73.8627099,0,170.29203302637725,591.8824397414865,2.9927260643176954,1
Unique Hospital,18.5221641,73.8676777,hospital,https://www.openstreetmap.org/?mlat=18.5221641&mlon=73.8676777#map=18/18.5221641/73.8676777,0,119.65355357651546,852.8182137988148,5.250271129184255,0
Sadhu Vaswani Missions Medical Complex,18.5347719,73.8874441,hospital,https://www.openstreetmap.org/?mlat=18.5347719&mlon=73.8874441#map=18/18.5347719/73.8874441,0,202.39597439960733,874.3210890922942,9.480107671059594,0
Poona Hospital and Research Centre,18.510644,73.8420437,hospital,https://www.openstreetmap.org/?mlat=18.510644&mlon=73.8420437#map=18/18.510644/73.8420437,0,248.5663497386214,889.729253070652,8.959580107790922,0
DEENDAYAL MEMORIAL HOSPITAL,18.5249802,73.8411721,hospital,https://www.openstreetmap.org/?mlat=18.5249802&mlon=73.8411721#map=18/18.5249802/73.8411721,0,194.6873667474727,792.4253336895482,8.918689804903746,0
KAMLA NEHRU HOSPITAL,18.5229428,73.8620344,hospital,https://www.openstreetmap.org/?mlat=18.5229428&mlon=73.8620344#map=18/18.5229428/73.8620344,0,245.16191952460207,831.3040945865798,0.5219997834180723,0
GLOBAL HOSPITAL & RESEARCH,18.5012869,73.8410045,hospital,https://www.openstreetmap.org/?mlat=18.5012869&mlon=73.8410045#map=18/18.5012869/73.8410045,1,168.23109502146934,537.4056427513923,4.082242354645277,0
RANKA HOSPITAL,18.4949578,73.8619001,hospital,https://www.openstreetmap.org/?mlat=18.4949578&mlon=73.8619001#map=18/18.4949578/73.8619001,1,32.55502926171596,721.333128192405,6.862343780176867,0
Joshi Hospital,18.5179034,73.8422853,hospital,https://www.openstreetmap.org/?mlat=18.5179034&mlon=73.8422853#map=18/18.5179034/73.8422853,0,267.9272401817808,741.1508059874112,3.210554290732227,0
Prayag Hospital,18.5174841,73.842789,hospital,https://www.openstreetmap.org/?mlat=18.5174841&mlon=73.842789#map=18/18.5174841/73.842789,0,6.9278454525318,847.3524468634473,3.6406919138947713,0
PUNE ADVENTIST HOSPITAL,18.491946,73.8709604,hospital,https://www.openstreetmap.org/?mlat=18.491946&mlon=73.8709604#map=18/18.491946/73.8709604,1,107.42997621189365,507.43502349006445,2.0627983591129926,0
HARIJIVAN HOSPITAL,18.5001316,73.8543108,hospital,https://www.openstreetmap.org/?mlat=18.5001316&mlon=73.8543108#map=18/18.5001316/73.8543108,1,155.0833614472291,560.293571149989,3.0605168610511946,0
Shashwat Hospital,18.4944973,73.8135873,hospital,https://www.openstreetmap.org/?mlat=18.4944973&mlon=73.8135873#map=18/18.4944973/73.8135873,1,191.96747558407145,576.7624523778193,5.908669161262617,0
Chavan Hospital,18.459162,73.8254504,hospital,https://www.openstreetmap.org/?mlat=18.459162&mlon=73.8254504#map=18/18.459162/73.8254504,1,25.70624176379379,749.7087135312172,9.022431350882844,0
Care Hospital,18.4645854,73.8906932,hospital,https://www.openstreetmap.org/?mlat=18.4645854&mlon=73.8906932#map=18/18.4645854/73.8906932,1,189.8013827563345,567.6448686600788,6.5217038412328465,0
Unknown,18.5498595,73.8720836,hospital,https://www.openstreetmap.org/?mlat=18.5498595&mlon=73.8720836#map=18/18.5498595/73.8720836,0,240.4966843374331,851.4995418404269,1.8875682174437747,0
test hospital,18.5255793,73.8539506,hospital,https://www.openstreetmap.org/?mlat=18.5255793&mlon=73.8539506#map=18/18.5255793/73.8539506,0,15.46919692145876,629.0642783781691,6.967718798821273,0
patil hospital,18.4475111,73.8488292,hospital,https://www.openstreetmap.org/?mlat=18.4475111&mlon=73.8488292#map=18/18.4475111/73.8488292,1,186.03486210464087,853.4785062872079,9.763790975275612,0
Dr. Rajendra Mehata Hospital,18.5376938,73.8515302,hospital,https://www.openstreetmap.org/?mlat=18.5376938&mlon=73.8515302#map=18/18.5376938/73.8515302,0,167.92275967805313,650.7745098808823,2.8462563520634787,1
Vighanaharata Hospital,18.4692892,73.8642415,hospital,https://www.openstreetmap.org/?mlat=18.4692892&mlon=73.8642415#map=18/18.4692892/73.8642415,1,15.588333295401412,889.1560102800106,9.71771672185599,0
Pulse Multispeciality Hospital,18.4595051,73.8233094,hospital,https://www.openstreetmap.org/?mlat=18.4595051&mlon=73.8233094#map=18/18.4595051/73.8233094,1,262.61203142435903,793.10601902525,5.516495309273558,0
Dr. Chavan Clinic,18.5062105,73.8169503,clinic,https://www.openstreetmap.org/?mlat=18.5062105&mlon=73.8169503#map=18/18.5062105/73.8169503,1,240.06755674631026,534.6867465646031,9.511921740563391,0
Unknown,18.4752986,73.8228355,clinic,https://www.openstreetmap.org/?mlat=18.4752986&mlon=73.8228355#map=18/18.4752986/73.8228355,1,66.3535376795712,776.7169131096298,7.213448114515121,0
Define Aesthetics,18.5319944,73.830273,clinic,https://www.openstreetmap.org/?mlat=18.5319944&mlon=73.830273#map=18/18.5319944/73.830273,0,205.46982111955407,628.3352115204625,9.668793611492895,0
Yash Eye Clinic and Laser Centre,18.4975327,73.8122449,clinic,https://www.openstreetmap.org/?mlat=18.4975327&mlon=73.8122449#map=18/18.4975327/73.8122449,1,276.91505907146524,833.4787281756203,3.632723193965135,0
Unknown,18.5130522,73.8539021,clinic,https://www.openstreetmap.org/?mlat=18.5130522&mlon=73.8539021#map=18/18.5130522/73.8539021,0,154.1295070416916,758.0965660297003,7.990173273316624,0
Vishvand Ayurvedic Clinic,18.4904025,73.8248393,clinic,https://www.openstreetmap.org/?mlat=18.4904025&mlon=73.8248393#map=18/18.4904025/73.8248393,1,239.17105747336842,794.1086201819472,4.684160817455286,0
Neo Artery and Vein Clinic,18.5180037,73.8360362,clinic,https://www.openstreetmap.org/?mlat=18.5180037&mlon=73.8360362#map=18/18.5180037/73.8360362,0,154.2227598587535,592.6538675594485,2.0448884015369995,1
Dr. Batra's Homeopathy Clinic,18.5025575,73.8169547,clinic,https://www.openstreetmap.org/?mlat=18.5025575&mlon=73.8169547#map=18/18.5025575/73.8169547,1,6.522283041618637,590.2047719134036,4.081533521539463,0
Shubhamkar Hand Clinic,18.5025462,73.8168342,clinic,https://www.openstreetmap.org/?mlat=18.5025462&mlon=73.8168342#map=18/18.5025462/73.8168342,1,238.18238023713803,838.1037173003101,9.52443540341654,0
N. Madhav Ayurvedic,18.4910572,73.8224069,clinic,https://www.openstreetmap.org/?mlat=18.4910572&mlon=73.8224069#map=18/18.4910572/73.8224069,1,265.78039968578076,596.1075153035882,3.827459932739783,0
Dwarika Multi-specialty Clinic,18.4600658,73.8261415,clinic,https://www.openstreetmap.org/?mlat=18.4600658&mlon=73.8261415#map=18/18.4600658/73.8261415,1,276.4645383407067,526.5214929224234,5.963814259808431,0
Unknown,18.5174323,73.8430746,clinic,https://www.openstreetmap.org/?mlat=18.5174323&mlon=73.8430746#map=18/18.5174323/73.8430746,0,128.78872920773995,605.5906021248481,4.316393811738958,0
"Kamal Nursing Home, Pune",18.4892153,73.8621201,clinic,https://www.openstreetmap.org/?mlat=18.4892153&mlon=73.8621201#map=18/18.4892153/73.8621201,1,47.81920483358088,610.6553340584246,3.0262407174435078,0
Wadekar Nursing Home,18.4729307,73.8193627,clinic,https://www.openstreetmap.org/?mlat=18.4729307&mlon=73.8193627#map=18/18.4729307/73.8193627,1,170.15837224161905,691.0739780088531,9.350242592733442,0
Bhagali Clinic and Nursing Home,18.4746632,73.8580583,clinic,https://www.openstreetmap.org/?mlat=18.4746632&mlon=73.8580583#map=18/18.4746632/73.8580583,1,64.58893329347893,763.9851990886839,5.40193065791987,0
"Aditya Eye Clinic, Pune",18.5160339,73.8792372,clinic,https://www.openstreetmap.org/?mlat=18.5160339&mlon=73.8792372#map=18/18.5160339/73.8792372,0,128.5066755308446,547.1996877827294,2.5315157733629845,0
"CGHS Polyclinic, Mukund Nagar",18.4945971,73.8599226,clinic,https://www.openstreetmap.org/?mlat=18.4945971&mlon=73.8599226#map=18/18.4945971/73.8599226,1,81.19922058450187,657.760062900625,4.148136172656736,0
CGHS Dispensary No.4,18.5189181,73.8599682,clinic,https://www.openstreetmap.org/?mlat=18.5189181&mlon=73.8599682#map=18/18.5189181/73.8599682,0,196.55840644669743,712.4274272747889,5.183401457011306,0
Dental Clinic,18.492082,73.8211372,clinic,https://www.openstreetmap.org/?mlat=18.492082&mlon=73.8211372#map=18/18.492082/73.8211372,1,66.2018462875627,573.3172406642256,5.484269774617792,0
Dr. Kashyap Nursing Home,18.4705601,73.8643355,clinic,https://www.openstreetmap.org/?mlat=18.4705601&mlon=73.8643355#map=18/18.4705601/73.8643355,1,165.02439574116872,566.0752208722045,7.401784417618984,0
Dr. Tekawade Eye Clinic,18.4953513,73.8583679,clinic,https://www.openstreetmap.org/?mlat=18.4953513&mlon=73.8583679#map=18/18.4953513/73.8583679,1,146.77670642013652,713.4808228388275,4.46449988107007,0
Patankar Nursing Home,18.5003686,73.8542886,clinic,https://www.openstreetmap.org/?mlat=18.5003686&mlon=73.8542886#map=18/18.5003686/73.8542886,1,9.980811446926186,775.8647413766753,5.871997649461075,0
Yeshwant Eye Clinic and Hospital,18.4970609,73.8537818,clinic,https://www.openstreetmap.org/?mlat=18.4970609&mlon=73.8537818#map=18/18.4970609/73.8537818,1,184.55450487770304,549.9607263446758,2.9641581686822507,1
Shaishav Clinic,18.5138215,73.8477098,clinic,https://www.openstreetmap.org/?mlat=18.5138215&mlon=73.8477098#map=18/18.5138215/73.8477098,0,23.930935348104963,549.1017265697054,2.623438709582666,0
Nayan Tara Eye Clinic,18.5010261,73.8251773,clinic,https://www.openstreetmap.org/?mlat=18.5010261&mlon=73.8251773#map=18/18.5010261/73.8251773,1,146.26463167315063,779.5685666766874,0.08742093589638955,0
Sunny Nursing Home,18.5121794,73.8102467,clinic,https://www.openstreetmap.org/?mlat=18.5121794&mlon=73.8102467#map=18/18.5121794/73.8102467,0,47.958016724151165,598.4982936492271,2.6018700572746942,0
Jeevan Sadhana Clinic - Pune,18.5052192,73.8240199,clinic,https://www.openstreetmap.org/?mlat=18.5052192&mlon=73.8240199#map=18/18.5052192/73.8240199,1,250.542216800795,705.5572010151411,0.09173170904388628,0
Ameya Clinic,18.5037236,73.829328,clinic,https://www.openstreetmap.org/?mlat=18.5037236&mlon=73.829328#map=18/18.5037236/73.829328,1,44.94233649271062,720.1180957031153,1.1760858343186276,0
Dr. Gogate's Eye Clinic,18.5327481,73.8743435,clinic,https://www.openstreetmap.org/?mlat=18.5327481&mlon=73.8743435#map=18/18.5327481/73.8743435,0,231.56738771152445,528.3336390119548,0.45284695906868566,1
Nayanjyot Eye Clinic and Laser Centre(NEO EYE CLINIC),18.5179948,73.8353509,clinic,https://www.openstreetmap.org/?mlat=18.5179948&mlon=73.8353509#map=18/18.5179948/73.8353509,0,263.1769040187678,683.8202619519187,8.468245393106224,0
Sharda Clinic,18.5012309,73.8663384,clinic,https://www.openstreetmap.org/?mlat=18.5012309&mlon=73.8663384#map=18/18.5012309/73.8663384,1,29.45289530119991,896.3601468941965,1.9519611699444805,0
Suryaprabha Nursing Home,18.5073684,73.8083558,clinic,https://www.openstreetmap.org/?mlat=18.5073684&mlon=73.8083558#map=18/18.5073684/73.8083558,1,120.55811771710863,640.3528510339995,5.863771730826316,0
Namrata Clinic,18.5142815,73.8689294,clinic,https://www.openstreetmap.org/?mlat=18.5142815&mlon=73.8689294#map=18/18.5142815/73.8689294,0,163.5792550310036,770.4230165151157,9.858191391758417,0
Pabalkar Nursing Home,18.5059721,73.8564974,clinic,https://www.openstreetmap.org/?mlat=18.5059721&mlon=73.8564974#map=18/18.5059721/73.8564974,1,85.67451886888804,747.532898962847,8.509597674727654,0
Usha Nursing Home,18.5074956,73.8788523,clinic,https://www.openstreetmap.org/?mlat=18.5074956&mlon=73.8788523#map=18/18.5074956/73.8788523,1,44.85303598689481,503.29049859676644,2.5998943848377998,0
Marathe Nursing Home,18.5047181,73.8203453,clinic,https://www.openstreetmap.org/?mlat=18.5047181&mlon=73.8203453#map=18/18.5047181/73.8203453,1,153.69562321127322,898.9211836726765,1.9680101249699,0
Neo Clinic,18.5240377,73.8414207,clinic,https://www.openstreetmap.org/?mlat=18.5240377&mlon=73.8414207#map=18/18.5240377/73.8414207,0,18.873125947189383,728.6108465165121,2.066140514513375,0
S P Deshpande Eye Clinic,18.5157802,73.8471479,clinic,https://www.openstreetmap.org/?mlat=18.5157802&mlon=73.8471479#map=18/18.5157802/73.8471479,0,96.91886644383851,752.8626093327559,9.486761191960811,0
Dr Meenu Agarwal Clinic,18.5139534,73.8781965,clinic,https://www.openstreetmap.org/?mlat=18.5139534&mlon=73.8781965#map=18/18.5139534/73.8781965,0,33.42499697795493,712.1050016806579,7.001480998472046,0
Sai Seva Hospital,18.5067097,73.8798045,clinic,https://www.openstreetmap.org/?mlat=18.5067097&mlon=73.8798045#map=18/18.5067097/73.8798045,1,180.05373069842707,822.7253327405996,4.0179629961826215,0
"Indira Nursing Home, Pune",18.4998338,73.8134164,clinic,https://www.openstreetmap.org/?mlat=18.4998338&mlon=73.8134164#map=18/18.4998338/73.8134164,1,263.15808075219456,608.4976611788964,8.189235363956422,0
Wagh Eye Clinic,18.5252979,73.8437355,clinic,https://www.openstreetmap.org/?mlat=18.5252979&mlon=73.8437355#map=18/18.5252979/73.8437355,0,129.75577311411837,700.7173615056182,2.3518582177789127,0
Bhide Clinic,18.5208179,73.8458765,clinic,https://www.openstreetmap.org/?mlat=18.5208179&mlon=73.8458765#map=18/18.5208179/73.8458765,0,48.01970125019698,540.8640585428273,9.071348816613673,0
Prabhudesai Eye Clinic,18.5009346,73.8202762,clinic,https://www.openstreetmap.org/?mlat=18.5009346&mlon=73.8202762#map=18/18.5009346/73.8202762,1,126.85996422397177,868.7976635273378,0.9096967673540435,0
Dr. Balani's Speciality Dental Clinic,18.525598,73.8763618,clinic,https://www.openstreetmap.org/?mlat=18.525598&mlon=73.8763618#map=18/18.525598/73.8763618,0,29.267835638869023,719.9943610089631,9.953409042743072,0
Yashraj Nursing Home,18.4481018,73.870931,clinic,https://www.openstreetmap.org/?mlat=18.4481018&mlon=73.870931#map=18/18.4481018/73.870931,1,160.45541985549323,654.8912654739382,3.17601662560985,0
Rao Nursing Home,18.4846599,73.8586137,clinic,https://www.openstreetmap.org/?mlat=18.4846599&mlon=73.8586137#map=18/18.4846599/73.8586137,1,290.8177966862558,711.247264934384,1.1225036889971207,0
Biniwale Clinic,18.5183573,73.8344885,clinic,https://www.openstreetmap.org/?mlat=18.5183573&mlon=73.8344885#map=18/18.5183573/73.8344885,0,133.14362514687608,623.3529140146998,9.953560845541833,0
Apte Eye Clinic and Laser Center,18.504769,73.8251156,clinic,https://www.openstreetmap.org/?mlat=18.504769&mlon=73.8251156#map=18/18.504769/73.8251156,1,93.57652300907537,604.9391079193387,5.274851645484323,0
Walimbe Eye Clinic,18.4856367,73.8511303,clinic,https://www.openstreetmap.org/?mlat=18.4856367&mlon=73.8511303#map=18/18.4856367/73.8511303,1,140.10404353148746,563.2548249750846,3.9532405546852214,0
Kanitkar Urology Clinic,18.5283179,73.8383925,clinic,https://www.openstreetmap.org/?mlat=18.5283179&mlon=73.8383925#map=18/18.5283179/73.8383925,0,149.37943451885351,591.28353091807,8.977216358590216,0
Asha Polyclinic,18.5014344,73.8149942,clinic,https://www.openstreetmap.org/?mlat=18.5014344&mlon=73.8149942#map=18/18.5014344/73.8149942,1,238.0300145656368,601.7023424523526,0.696049275090298,1
"Sayali Nursing Home, Pune",18.488122,73.8190008,clinic,https://www.openstreetmap.org/?mlat=18.488122&mlon=73.8190008#map=18/18.488122/73.8190008,1,121.66096863270973,523.4497890726743,9.963288834752074,0
Pandit Clinic,18.5232989,73.8496108,clinic,https://www.openstreetmap.org/?mlat=18.5232989&mlon=73.8496108#map=18/18.5232989/73.8496108,0,246.11046839952354,576.5297044673642,5.268279823610005,0
Swayam Clinic Pvt. Ltd.,18.5076152,73.8760802,clinic,https://www.openstreetmap.org/?mlat=18.5076152&mlon=73.8760802#map=18/18.5076152/73.8760802,1,220.47180165706922,561.4930423192714,4.909755315088127,0
Dr. A Raina's Clinic,18.449371,73.87587,clinic,https://www.openstreetmap.org/?mlat=18.449371&mlon=73.87587#map=18/18.449371/73.87587,1,245.9102780135376,786.8854890511655,2.3964235658478774,0
Ruby Hall Clinic,18.5334836,73.8769949,clinic,https://www.openstreetmap.org/?mlat=18.5334836&mlon=73.8769949#map=18/18.5334836/73.8769949,0,217.7814933851081,576.8347263873613,8.373130397041415,0
Mangal Clinic,18.4827972,73.8084321,clinic,https://www.openstreetmap.org/?mlat=18.4827972&mlon=73.8084321#map=18/18.4827972/73.8084321,1,208.18031068250872,642.7031977681261,7.899138432442548,0
Prarthna Clinic,18.481753,73.899019,clinic,https://www.openstreetmap.org/?mlat=18.481753&mlon=73.899019#map=18/18.481753/73.899019,1,94.30634728461081,550.0620300196595,3.1815189572905034,0
The Good Health Family Clinic,18.4756412,73.8930217,clinic,https://www.openstreetmap.org/?mlat=18.4756412&mlon=73.8930217#map=18/18.4756412/73.8930217,1,58.410683514968554,515.9323939762771,4.853768588021933,0
Manish Clinic,18.5195705,73.8574069,clinic,https://www.openstreetmap.org/?mlat=18.5195705&mlon=73.8574069#map=18/18.5195705/73.8574069,0,139.67104082069386,711.1295958011815,3.581399413671277,0
Sana Hospital,18.4730894,73.8914046,clinic,https://www.openstreetmap.org/?mlat=18.4730894&mlon=73.8914046#map=18/18.4730894/73.8914046,1,163.3567774795583,725.0921183029673,8.2791768812759,0
Pratham Clinic,18.5131462,73.8489965,clinic,https://www.openstreetmap.org/?mlat=18.5131462&mlon=73.8489965#map=18/18.5131462/73.8489965,0,90.4479031135856,867.8277888033097,3.8010752614501664,0
Lavate Clinic,18.5203001,73.8416972,clinic,https://www.openstreetmap.org/?mlat=18.5203001&mlon=73.8416972#map=18/18.5203001/73.8416972,0,156.74891881569684,778.1547934342387,0.8983126697996124,0
Dhaumya Clinic,18.502148,73.840414,clinic,https://www.openstreetmap.org/?mlat=18.502148&mlon=73.840414#map=18/18.502148/73.840414,1,202.89028336939754,599.6481164733651,9.607181165968347,0
Dr. Saha Clinic,18.5177669,73.859913,clinic,https://www.openstreetmap.org/?mlat=18.5177669&mlon=73.859913#map=18/18.5177669/73.859913,0,96.39093528058389,834.9988276009134,5.540664335391744,0
Niramay Clinic,18.5238058,73.8631174,clinic,https://www.openstreetmap.org/?mlat=18.5238058&mlon=73.8631174#map=18/18.5238058/73.8631174,0,282.67308395903757,665.079475656114,5.439945183849977,0
Mansi Clinic,18.50356,73.838753,clinic,https://www.openstreetmap.org/?mlat=18.50356&mlon=73.838753#map=18/18.50356/73.838753,1,201.74453456773378,530.3272274113201,0.3682565098253854,1
Shree Datta Clinic,18.5047686,73.8428903,clinic,https://www.openstreetmap.org/?mlat=18.5047686&mlon=73.8428903#map=18/18.5047686/73.8428903,1,56.96731036223465,749.2077804356148,3.2419668028198068,0
Dr. Otiv Clinic,18.51988,73.872171,clinic,https://www.openstreetmap.org/?mlat=18.51988&mlon=73.872171#map=18/18.51988/73.872171,0,92.02225920144808,779.9908440767679,2.1470149590111887,0
Shri Dattakrupa Clinic,18.5262863,73.8550284,clinic,https://www.openstreetmap.org/?mlat=18.5262863&mlon=73.8550284#map=18/18.5262863/73.8550284,0,197.82872885085288,657.9722202984169,7.045452416743095,0
Shree Ganga Clinic,18.5155226,73.8653981,clinic,https://www.openstreetmap.org/?mlat=18.5155226&mlon=73.8653981#map=18/18.5155226/73.8653981,0,137.1637452909302,724.188303489103,1.4498389387117971,0
Vivekanand Homeopathic Clinic,18.4570306,73.8501126,clinic,https://www.openstreetmap.org/?mlat=18.4570306&mlon=73.8501126#map=18/18.4570306/73.8501126,1,83.48161862585735,885.2409183317616,4.99481944930996,0
Asava Clinic,18.516103,73.8498982,clinic,https://www.openstreetmap.org/?mlat=18.516103&mlon=73.8498982#map=18/18.516103/73.8498982,0,174.29926476163692,641.2589339516082,3.742153813050649,0
Sammohini Clinic,18.508126,73.843714,clinic,https://www.openstreetmap.org/?mlat=18.508126&mlon=73.843714#map=18/18.508126/73.843714,1,222.58730366641484,861.540528438697,7.178405476859186,0
Apte Clinic,18.4993672,73.8306701,clinic,https://www.openstreetmap.org/?mlat=18.4993672&mlon=73.8306701#map=18/18.4993672/73.8306701,1,116.55218771577978,796.5815941062268,6.942412851204124,0
Apollo Clinic,18.5295508,73.8343444,clinic,https://www.openstreetmap.org/?mlat=18.5295508&mlon=73.8343444#map=18/18.5295508/73.8343444,0,45.6176431695974,596.8594519263859,0.13684741689341862,0
Dr. Khabia Clinic,18.4554534,73.8712939,clinic,https://www.openstreetmap.org/?mlat=18.4554534&mlon=73.8712939#map=18/18.4554534/73.8712939,1,292.4483082233945,775.9721415745969,6.793631553361347,0
Lupus Clinic,18.503465,73.856543,clinic,https://www.openstreetmap.org/?mlat=18.503465&mlon=73.856543#map=18/18.503465/73.856543,1,255.8134864116156,527.3069658840338,7.581787459806359,0
Panse Eye Care - Health Clinic,18.4458849,73.8593774,clinic,https://www.openstreetmap.org/?mlat=18.4458849&mlon=73.8593774#map=18/18.4458849/73.8593774,1,260.4057474665352,557.4722196637324,9.098768650276503,0
Express Clinics Pvt Ltd,18.4916654,73.8562042,clinic,https://www.openstreetmap.org/?mlat=18.4916654&mlon=73.8562042#map=18/18.4916654/73.8562042,1,184.8002820733255,856.5228391890635,9.375773476814862,0
Holistic Clinic,18.5149363,73.8176218,clinic,https://www.openstreetmap.org/?mlat=18.5149363&mlon=73.8176218#map=18/18.5149363/73.8176218,0,160.07242861790735,541.0702118043031,4.345943491844558,0
Apka Clinic,18.5192138,73.8430146,clinic,https://www.openstreetmap.org/?mlat=18.5192138&mlon=73.8430146#map=18/18.5192138/73.8430146,0,167.733378700081,513.0804492447661,7.697628777319208,0
Paras Clinic,18.5214643,73.8625837,clinic,https://www.openstreetmap.org/?mlat=18.5214643&mlon=73.8625837#map=18/18.5214643/73.8625837,0,290.49466450544077,775.6555746267693,6.961461046415519,0
Shree Clinic,18.5263592,73.8430033,clinic,https://www.openstreetmap.org/?mlat=18.5263592&mlon=73.8430033#map=18/18.5263592/73.8430033,0,139.21515734048586,572.6657800453272,0.14245353073798261,0
Milenkari Clinic,18.521921,73.859575,clinic,https://www.openstreetmap.org/?mlat=18.521921&mlon=73.859575#map=18/18.521921/73.859575,0,133.21347842406135,771.1318835167797,7.205395212956967,0
Rukhmini Clinic,18.5017833,73.8120633,clinic,https://www.openstreetmap.org/?mlat=18.5017833&mlon=73.8120633#map=18/18.5017833/73.8120633,1,99.36398539804127,896.1726133843233,2.4716206948924846,0
Nadkarni Clinic,18.502818,73.828831,clinic,https://www.openstreetmap.org/?mlat=18.502818&mlon=73.828831#map=18/18.502818/73.828831,1,214.13993727633698,780.1155662769102,8.9741222137997,0
Anandi PolyClinic,18.4630743,73.8661551,clinic,https://www.openstreetmap.org/?mlat=18.4630743&mlon=73.8661551#map=18/18.4630743/73.8661551,1,29.48583365222617,551.3453088439819,7.717896461655514,0
Nirmal Clinic,18.5152266,73.8492849,clinic,https://www.openstreetmap.org/?mlat=18.5152266&mlon=73.8492849#map=18/18.5152266/73.8492849,0,36.927174183726855,587.7811476555692,6.8008675430084145,0
Mansanjeevani Clinic,18.50551,73.825311,clinic,https://www.openstreetmap.org/?mlat=18.50551&mlon=73.825311#map=18/18.50551/73.825311,1,208.6677878730296,837.4598431628572,9.527370076124999,0
Dr. Shriram Athavale Clinic,18.5098783,73.862231,clinic,https://www.openstreetmap.org/?mlat=18.5098783&mlon=73.862231#map=18/18.5098783/73.862231,1,268.5786153103068,888.682459367829,6.793009283097788,0
Dr. Dilip Shah Clinic,18.5188008,73.859382,clinic,https://www.openstreetmap.org/?mlat=18.5188008&mlon=73.859382#map=18/18.5188008/73.859382,0,143.68247289301513,547.553158476674,2.0417894907064493,0
Borawake Clinic,18.5232019,73.8480644,clinic,https://www.openstreetmap.org/?mlat=18.5232019&mlon=73.8480644#map=18/18.5232019/73.8480644,0,258.52584088843594,694.4263106295599,8.201158736943931,0
Ameya Clinic,18.4762628,73.8625938,clinic,https://www.openstreetmap.org/?mlat=18.4762628&mlon=73.8625938#map=18/18.4762628/73.8625938,1,242.3579258796921,789.506978526731,9.541307506846037,0
Shrutij Panchkarm Clinic,18.5162662,73.8515172,clinic,https://www.openstreetmap.org/?mlat=18.5162662&mlon=73.8515172#map=18/18.5162662/73.8515172,0,78.11482797367287,749.0322071523101,7.554599699961192,0
Patil Clinic,18.5196001,73.8498691,clinic,https://www.openstreetmap.org/?mlat=18.5196001&mlon=73.8498691#map=18/18.5196001/73.8498691,0,38.14638378899395,691.4987450533681,8.714445183645829,0
Dr. Shirish Hiremath - Cardiologist,18.5281508,73.8413978,clinic,https://www.openstreetmap.org/?mlat=18.5281508&mlon=73.8413978#map=18/18.5281508/73.8413978,0,33.11604148016236,797.2909806395979,2.7839795476046625,0
PAI RAITURKAR IVF CLINIC,18.5139572,73.8346569,clinic,https://www.openstreetmap.org/?mlat=18.5139572&mlon=73.8346569#map=18/18.5139572/73.8346569,0,186.49372755915132,739.7972983703036,4.835519146683806,0
IMMUNOLOGY & RHEUMATOLOGY CLINIC,18.4959085,73.8886641,clinic,https://www.openstreetmap.org/?mlat=18.4959085&mlon=73.8886641#map=18/18.4959085/73.8886641,1,80.04280699794093,526.5251491769975,5.703998213098329,0
Pain Management Clinic,18.516483,73.8517463,clinic,https://www.openstreetmap.org/?mlat=18.516483&mlon=73.8517463#map=18/18.516483/73.8517463,0,14.854636346130611,719.3100217638381,5.342336903935294,0
Dr Barve's The Bone and Joint Clinic,18.5109806,73.8363554,clinic,https://www.openstreetmap.org/?mlat=18.5109806&mlon=73.8363554#map=18/18.5109806/73.8363554,0,136.97522830682635,872.465011170941,6.955660606186549,0
Anvi ENT & Thyroid Clinic,18.4839829,73.871629,clinic,https://www.openstreetmap.org/?mlat=18.4839829&mlon=73.871629#map=18/18.4839829/73.871629,1,147.15143815121823,771.4668680455579,6.588030206495221,0
Panacea Clinic,18.5037668,73.8199793,clinic,https://www.openstreetmap.org/?mlat=18.5037668&mlon=73.8199793#map=18/18.5037668/73.8199793,1,41.39382250343245,635.441435984622,9.69139171556057,0
SHUBHANAND CLINIC,18.5048298,73.8318954,clinic,https://www.openstreetmap.org/?mlat=18.5048298&mlon=73.8318954#map=18/18.5048298/73.8318954,1,280.37175706284387,567.8809086209585,3.074247591614011,0
JEEVAN SPARSH EYE HOSPITAL,18.4790903,73.8731524,clinic,https://www.openstreetmap.org/?mlat=18.4790903&mlon=73.8731524#map=18/18.4790903/73.8731524,1,283.51655612369336,548.1195471438879,3.3779482170748274,0
Purunanda Surgical and Eye Clinic,18.4830166,73.889328,clinic,https://www.openstreetmap.org/?mlat=18.4830166&mlon=73.889328#map=18/18.4830166/73.889328,1,156.24622361294564,608.9283516861146,0.6515426409413738,1
"Robotic, Laparoscopic Uro-Surgeon",18.5350826,73.8795819,clinic,https://www.openstreetmap.org/?mlat=18.5350826&mlon=73.8795819#map=18/18.5350826/73.8795819,0,179.73216650381397,800.8077267979027,6.824943979617726,0
Dr Bhupeshkumar Kaware,18.5113271,73.8765134,clinic,https://www.openstreetmap.org/?mlat=18.5113271&mlon=73.8765134#map=18/18.5113271/73.8765134,0,229.1464940692892,735.4634254718857,2.6085161180028047,0
"Diabetologist Endocrinologist In Pune - Dr Milind Patil SHRI SWAMI DIABETES,& ENDOCRINE CENTER",18.5180162,73.8793029,clinic,https://www.openstreetmap.org/?mlat=18.5180162&mlon=73.8793029#map=18/18.5180162/73.8793029,0,5.524925367374511,686.9740939183881,3.954083943700838,0
Innoveda Dr Mehta,18.5057324,73.8501866,clinic,https://www.openstreetmap.org/?mlat=18.5057324&mlon=73.8501866#map=18/18.5057324/73.8501866,1,221.40270035012853,641.5994256901243,1.0194587199818728,1
DR. AMEET DRAVID,18.5184524,73.8331134,clinic,https://www.openstreetmap.org/?mlat=18.5184524&mlon=73.8331134#map=18/18.5184524/73.8331134,0,293.99519748158826,572.7753419137695,6.484072152882593,0
Dr Jain's Dental Care,18.5428164,73.8386646,clinic,https://www.openstreetmap.org/?mlat=18.5428164&mlon=73.8386646#map=18/18.5428164/73.8386646,0,59.46351029113568,882.311680267273,9.878837473191759,0
Dr. Prashant Khandelwal’s Brain & Spine Clinic,18.5386996,73.8798219,clinic,https://www.openstreetmap.org/?mlat=18.5386996&mlon=73.8798219#map=18/18.5386996/73.8798219,0,296.7536679434071,580.4195014466187,1.5097911544286535,1
Dr Ashraf Khan Orthopaedic Joint Care Clinic,18.4842813,73.8897937,clinic,https://www.openstreetmap.org/?mlat=18.4842813&mlon=73.8897937#map=18/18.4842813/73.8897937,1,285.39375135281455,655.1892867907907,5.268580063741489,0
DR. UPLENCHWAR'S WOMENS & EYE CARE CLINIC,18.508241,73.8221756,clinic,https://www.openstreetmap.org/?mlat=18.508241&mlon=73.8221756#map=18/18.508241/73.8221756,1,176.9263972072735,530.4710736634033,9.173894154361284,0
INTEGRITY DENTAL CARE,18.5039346,73.8204928,clinic,https://www.openstreetmap.org/?mlat=18.5039346&mlon=73.8204928#map=18/18.5039346/73.8204928,1,217.78694746344746,509.34084984597627,8.49977598078671,0
Perfection Hair Transplant Clinic,18.5069161,73.8288573,clinic,https://www.openstreetmap.org/?mlat=18.5069161&mlon=73.8288573#map=18/18.5069161/73.8288573,1,135.79399477842,622.6511465550138,9.911874197258848,0
SNEH CHILD CARE CLINIC,18.5199725,73.8720724,clinic,https://www.openstreetmap.org/?mlat=18.5199725&mlon=73.8720724#map=18/18.5199725/73.8720724,0,164.92008767360736,546.5576845006656,9.00836476284934,0
"Dr. Bhushan Khedkar, Rubi hall  clinic",18.5341144,73.8771503,clinic,https://www.openstreetmap.org/?mlat=18.5341144&mlon=73.8771503#map=18/18.5341144/73.8771503,0,151.5594015905278,771.0473163867446,0.8386192499410361,0
Orthopedic Speciality Care Clinic,18.5102578,73.8192058,clinic,https://www.openstreetmap.org/?mlat=18.5102578&mlon=73.8192058#map=18/18.5102578/73.8192058,0,149.9975804014159,889.7699432371126,4.713086146130978,0
DENTAL FITNESS,18.4913117,73.8222737,clinic,https://www.openstreetmap.org/?mlat=18.4913117&mlon=73.8222737#map=18/18.4913117/73.8222737,1,243.59596001872754,511.6713961963162,6.048120111145803,0
Dr Leena Hiremath,18.5231703,73.8766107,clinic,https://www.openstreetmap.org/?mlat=18.5231703&mlon=73.8766107#map=18/18.5231703/73.8766107,0,75.57279731700108,704.8596389918902,5.119409217373551,0
Dr. R M Rajpurohit - Metro Advanced Homeopathy Clinic,18.4864148,73.8740469,clinic,https://www.openstreetmap.org/?mlat=18.4864148&mlon=73.8740469#map=18/18.4864148/73.8740469,1,58.29034526456758,543.7364118502645,5.669325030879957,0
J M Diagnostic Centre - Madhu - Meet Diabetes,18.5258066,73.8504215,clinic,https://www.openstreetmap.org/?mlat=18.5258066&mlon=73.8504215#map=18/18.5258066/73.8504215,0,135.8082787534084,785.6320675795077,8.056675118367316,0
Neo Clinic Artery and Vein Clinic,18.518268,73.8360102,clinic,https://www.openstreetmap.org/?mlat=18.518268&mlon=73.8360102#map=18/18.518268/73.8360102,0,290.1081535024664,811.9753596831692,7.3413239788895845,0
BHURAT CLINIC,18.481128,73.8650559,clinic,https://www.openstreetmap.org/?mlat=18.481128&mlon=73.8650559#map=18/18.481128/73.8650559,1,205.5822794494945,662.1329242559742,4.14296014001792,0
Dr Kiran Kharat,18.5336705,73.8771566,clinic,https://www.openstreetmap.org/?mlat=18.5336705&mlon=73.8771566#map=18/18.5336705/73.8771566,0,215.81614540122965,767.597131863195,0.27941756358628944,0
RELA INSTITUTE - RUBY HALL CLINIC,18.5338589,73.8771398,clinic,https://www.openstreetmap.org/?mlat=18.5338589&mlon=73.8771398#map=18/18.5338589/73.8771398,0,214.08620365242018,656.8949547400387,6.396150999590791,0
SMILE GALLERY DENTAL CARE CENTRE,18.5090997,73.8303229,clinic,https://www.openstreetmap.org/?mlat=18.5090997&mlon=73.8303229#map=18/18.5090997/73.8303229,1,246.83617247146293,507.13875984678475,9.689832066548384,0
Dr. Usha Pratap,18.4843088,73.8895598,clinic,https://www.openstreetmap.org/?mlat=18.4843088&mlon=73.8895598#map=18/18.4843088/73.8895598,1,161.37959853876507,630.2634950347133,2.830804792298951,1
Dhope Diabetes Care and Thyroid Clinic,18.4772502,73.8236797,clinic,https://www.openstreetmap.org/?mlat=18.4772502&mlon=73.8236797#map=18/18.4772502/73.8236797,1,56.29116416690534,807.4343243031126,1.7640580875322998,0
Healing Bones Clinic,18.4588496,73.8777085,clinic,https://www.openstreetmap.org/?mlat=18.4588496&mlon=73.8777085#map=18/18.4588496/73.8777085,1,165.7974069995799,832.883442929691,6.089758563183461,0
Dr. Devendra Vartak,18.5038101,73.829271,clinic,https://www.openstreetmap.org/?mlat=18.5038101&mlon=73.829271#map=18/18.5038101/73.829271,1,83.38712900215731,841.1562890794052,7.159480420361711,0
New Horizons Clinic,18.4755066,73.8917261,clinic,https://www.openstreetmap.org/?mlat=18.4755066&mlon=73.8917261#map=18/18.4755066/73.8917261,1,294.5117128981112,509.28309243729035,0.7081195753496472,1
Aadhya Orthopaedic and Physiotherapy Care,18.52733,73.8421459,clinic,https://www.openstreetmap.org/?mlat=18.52733&mlon=73.8421459#map=18/18.52733/73.8421459,0,2.475381553627687,827.2649057604889,6.123877808187201,0
Dr Priyamvada Shah,18.5035649,73.8197071,clinic,https://www.openstreetmap.org/?mlat=18.5035649&mlon=73.8197071#map=18/18.5035649/73.8197071,1,284.9666574128838,877.8748372137297,8.01802766926744,0
HRIDAYASTH HEART CLINIC,18.4914878,73.8580871,clinic,https://www.openstreetmap.org/?mlat=18.4914878&mlon=73.8580871#map=18/18.4914878/73.8580871,1,214.9003962867113,723.975928517764,4.608973211163381,0
Dr. Qaedjohar Dhariwal,18.5032016,73.8998432,clinic,https://www.openstreetmap.org/?mlat=18.5032016&mlon=73.8998432#map=18/18.5032016/73.8998432,1,252.05416177257436,708.1918435983971,1.2881341487827824,0
TEETHZ TANTRAS™,18.5050856,73.8394771,clinic,https://www.openstreetmap.org/?mlat=18.5050856&mlon=73.8394771#map=18/18.5050856/73.8394771,1,267.94952029392846,715.6026721144408,1.6966570548482474,0
Krushna Orthodontic & Dental Clinic,18.5008306,73.8418888,clinic,https://www.openstreetmap.org/?mlat=18.5008306&mlon=73.8418888#map=18/18.5008306/73.8418888,1,227.67558701395424,807.5878766242404,4.163184411815007,0
Vardhaman Eye Care,18.4966795,73.8623419,clinic,https://www.openstreetmap.org/?mlat=18.4966795&mlon=73.8623419#map=18/18.4966795/73.8623419,1,128.4085940188062,681.6936351038985,5.595475698631161,0
Sunshine Orthopedic Clinic,18.4987427,73.8802572,clinic,https://www.openstreetmap.org/?mlat=18.4987427&mlon=73.8802572#map=18/18.4987427/73.8802572,1,189.39699909588006,529.1163024086279,9.961624534729719,0
Grace Skin & Hair Transplant Center,18.5022041,73.8092322,clinic,https://www.openstreetmap.org/?mlat=18.5022041&mlon=73.8092322#map=18/18.5022041/73.8092322,1,56.44122318842213,775.2922500384022,5.455584110757146,0
Physiotherapy Center Pune,18.4859887,73.8495742,clinic,https://www.openstreetmap.org/?mlat=18.4859887&mlon=73.8495742#map=18/18.4859887/73.8495742,1,37.336359126023446,607.4060222127941,7.074065804861523,0
Unknown,18.5027884,73.8341817,clinic,https://www.openstreetmap.org/?mlat=18.5027884&mlon=73.8341817#map=18/18.5027884/73.8341817,1,17.693828631231533,732.3787709739628,0.814641844604227,0
Partly cloudy Dr. Sanjay Patil | Spine Surgeon,18.5199427,73.8721146,clinic,https://www.openstreetmap.org/?mlat=18.5199427&mlon=73.8721146#map=18/18.5199427/73.8721146,0,57.56748235009057,513.4157017869504,2.813049898820882,0
dr kanchankumar Bhagyawant,18.5337203,73.8770286,clinic,https://www.openstreetmap.org/?mlat=18.5337203&mlon=73.8770286#map=18/18.5337203/73.8770286,0,37.13800366357687,890.7207825367076,0.73866102291824,0
Dr. Pramod Bhilare Orthopaedic Spine Clinic,18.5059305,73.8566978,clinic,https://www.openstreetmap.org/?mlat=18.5059305&mlon=73.8566978#map=18/18.5059305/73.8566978,1,249.246659533884,536.9329981340601,7.201648711285859,0
Gastro and Liver Care,18.4983171,73.8544993,clinic,https://www.openstreetmap.org/?mlat=18.4983171&mlon=73.8544993#map=18/18.4983171/73.8544993,1,269.17576973467965,780.5648331868842,3.058322479287947,0
Hriday Siddhee Heart and Skin Superspeciality clinic,18.4477544,73.8314122,clinic,https://www.openstreetmap.org/?mlat=18.4477544&mlon=73.8314122#map=18/18.4477544/73.8314122,1,158.41034197965044,752.3890893962226,1.559989326066894,0
Loknete Gopinatharo Munde Memorial Diagnostic & Health Care Centre,18.4532771,73.873948,clinic,https://www.openstreetmap.org/?mlat=18.4532771&mlon=73.873948#map=18/18.4532771/73.873948,1,161.0838556071986,611.017040123811,5.395829379049654,0
Sneh Child Care Clinic,18.5198011,73.8712374,clinic,https://www.openstreetmap.org/?mlat=18.5198011&mlon=73.8712374#map=18/18.5198011/73.8712374,0,17.976176649290622,749.6757519666079,4.462321383409783,0
Tapadiya's Dental Casa,18.5037932,73.8562917,clinic,https://www.openstreetmap.org/?mlat=18.5037932&mlon=73.8562917#map=18/18.5037932/73.8562917,1,248.59168136284762,676.6874987701551,4.100283248696223,0
Ishaan Orthopedic Clinic,18.4711076,73.8633772,clinic,https://www.openstreetmap.org/?mlat=18.4711076&mlon=73.8633772#map=18/18.4711076/73.8633772,1,202.0538251206325,511.7673633430092,1.2307272196549024,1
Jagtap Clinic and Research Centre,18.5041547,73.8548551,clinic,https://www.openstreetmap.org/?mlat=18.5041547&mlon=73.8548551#map=18/18.5041547/73.8548551,1,298.6642493880699,611.2669579665886,6.141670730981836,0
Deshmukh Clinic & Research Centre,18.5104258,73.8464875,clinic,https://www.openstreetmap.org/?mlat=18.5104258&mlon=73.8464875#map=18/18.5104258/73.8464875,0,297.7060433447949,795.0787101180495,8.571314997056106,0
Dr. Jagdish Dhake,18.4871931,73.8570132,clinic,https://www.openstreetmap.org/?mlat=18.4871931&mlon=73.8570132#map=18/18.4871931/73.8570132,1,141.11862585842923,734.9723517715482,1.3414549279448518,0
Dr. Hasmukh Gujar,18.4927152,73.8567317,clinic,https://www.openstreetmap.org/?mlat=18.4927152&mlon=73.8567317#map=18/18.4927152/73.8567317,1,211.57208110376567,655.4336074408035,9.505772498720761,0
Sayar Clinic,18.4734788,73.8626024,clinic,https://www.openstreetmap.org/?mlat=18.4734788&mlon=73.8626024#map=18/18.4734788/73.8626024,1,191.33234308905523,763.5991406070709,4.132770295539693,0
Dr. Bilal's Crystal Medicare Clinic,18.5493077,73.8889117,clinic,https://www.openstreetmap.org/?mlat=18.5493077&mlon=73.8889117#map=18/18.5493077/73.8889117,0,33.010778865325626,555.7714328628698,6.454507710709569,0
Dr. Advait Kothurkar,18.5246551,73.842476,clinic,https://www.openstreetmap.org/?mlat=18.5246551&mlon=73.842476#map=18/18.5246551/73.842476,0,201.731221230992,750.2528090622044,2.0587932882518856,0
Dr. Sathe's cardiac clinic,18.5175359,73.8339951,clinic,https://www.openstreetmap.org/?mlat=18.5175359&mlon=73.8339951#map=18/18.5175359/73.8339951,0,137.31245215813829,501.7870857708614,3.912350077723996,0
Dr. Gadkari Cardiac clinic,18.5330242,73.8473745,clinic,https://www.openstreetmap.org/?mlat=18.5330242&mlon=73.8473745#map=18/18.5330242/73.8473745,0,63.48285226626588,570.6240729927092,9.354351646389201,0
Suhrud clinic,18.4971906,73.8554839,clinic,https://www.openstreetmap.org/?mlat=18.4971906&mlon=73.8554839#map=18/18.4971906/73.8554839,1,219.34024591688183,516.534488673405,6.891564472972753,0
Panacea Multispeciality Clinic,18.5165382,73.8035744,clinic,https://www.openstreetmap.org/?mlat=18.5165382&mlon=73.8035744#map=18/18.5165382/73.8035744,0,297.32271263960246,873.1027693925126,8.971008859930361,0
Dr. Bharat Patel Clinic,18.5199582,73.8721693,clinic,https://www.openstreetmap.org/?mlat=18.5199582&mlon=73.8721693#map=18/18.5199582/73.8721693,0,184.58608342473548,784.7805890362474,1.3018321272784972,0
ASPEN Clinic,18.4771214,73.8967846,clinic,https://www.openstreetmap.org/?mlat=18.4771214&mlon=73.8967846#map=18/18.4771214/73.8967846,1,262.80413805295206,579.5161421174107,2.405332035897297,1
Dr Madhusudan Asawa | The Heart Clinic,18.5012069,73.8479507,clinic,https://www.openstreetmap.org/?mlat=18.5012069&mlon=73.8479507#map=18/18.5012069/73.8479507,1,98.18759771671951,657.6973168097998,4.2506712173385255,0
Health Havens Clinic,18.4770909,73.8967532,clinic,https://www.openstreetmap.org/?mlat=18.4770909&mlon=73.8967532#map=18/18.4770909/73.8967532,1,19.16500110551643,799.6587233675459,5.390110193462504,0
Unmesh Orthopedic Clinic,18.501414,73.8487739,clinic,https://www.openstreetmap.org/?mlat=18.501414&mlon=73.8487739#map=18/18.501414/73.8487739,1,96.30766800443047,796.8089730127012,5.968880998929421,0
Apex Speciality Clinic,18.4761111,73.8621061,clinic,https://www.openstreetmap.org/?mlat=18.4761111&mlon=73.8621061#map=18/18.4761111/73.8621061,1,82.8448134484733,668.3299249660078,9.168216346216976,0
Dr. Sarafs Joints Clinic,18.511803,73.8366737,clinic,https://www.openstreetmap.org/?mlat=18.511803&mlon=73.8366737#map=18/18.511803/73.8366737,0,89.4394285200949,621.6322378762237,7.2843352579916845,0
Heal 24,18.4553291,73.8788267,clinic,https://www.openstreetmap.org/?mlat=18.4553291&mlon=73.8788267#map=18/18.4553291/73.8788267,1,151.77656948586448,545.0259358557208,5.817408668348375,0
Mohite Clinic,18.4636759,73.8368624,clinic,https://www.openstreetmap.org/?mlat=18.4636759&mlon=73.8368624#map=18/18.4636759/73.8368624,1,243.5932291320288,805.7726858676084,1.0991662180133266,0
Mohite Clinic,18.4649271,73.8347832,clinic,https://www.openstreetmap.org/?mlat=18.4649271&mlon=73.8347832#map=18/18.4649271/73.8347832,1,250.698928303658,729.148018080451,6.577124443680592,0
Namo Multispeciality Hospital,18.4568096,73.8784374,clinic,https://www.openstreetmap.org/?mlat=18.4568096&mlon=73.8784374#map=18/18.4568096/73.8784374,1,111.18957861005694,557.4361701503076,4.012839132104448,0
Urovision,18.4983571,73.8133881,clinic,https://www.openstreetmap.org/?mlat=18.4983571&mlon=73.8133881#map=18/18.4983571/73.8133881,1,247.07429426883064,708.5478608138478,2.970114786684923,0
Ishwar Heart Clinic,18.5262983,73.8518531,clinic,https://www.openstreetmap.org/?mlat=18.5262983&mlon=73.8518531#map=18/18.5262983/73.8518531,0,5.68592183539669,603.3855672624536,9.596447288602329,0
Sparsh Clinic,18.4629202,73.8900232,clinic,https://www.openstreetmap.org/?mlat=18.4629202&mlon=73.8900232#map=18/18.4629202/73.8900232,1,253.23408043934887,612.6212748857486,6.695032524560157,0
Dixit Dental Clinic,18.5092075,73.8312717,clinic,https://www.openstreetmap.org/?mlat=18.5092075&mlon=73.8312717#map=18/18.5092075/73.8312717,1,41.73252860208858,645.1941828424681,4.981065107960484,0
Balakrishna Dental Care,18.4810849,73.8625583,clinic,https://www.openstreetmap.org/?mlat=18.4810849&mlon=73.8625583#map=18/18.4810849/73.8625583,1,43.76659610935283,524.3788815555357,4.6011416848349675,0
Dr. Shingare's Paralysis & Neurocare Center,18.4521005,73.8204274,clinic,https://www.openstreetmap.org/?mlat=18.4521005&mlon=73.8204274#map=18/18.4521005/73.8204274,1,112.43477170088946,754.7699366941634,2.695584330826163,0
D-dent Care Laser and Multi-speciality Dental Clinics,18.5111761,73.8337195,clinic,https://www.openstreetmap.org/?mlat=18.5111761&mlon=73.8337195#map=18/18.5111761/73.8337195,0,206.99794315479596,849.865703354799,9.896023948045627,0
The Skin Miracle,18.4507514,73.874088,clinic,https://www.openstreetmap.org/?mlat=18.4507514&mlon=73.874088#map=18/18.4507514/73.874088,1,267.7975439356485,538.9610550532319,0.2045008622331368,1
Orthopaedic Speciality Care,18.5247418,73.842369,clinic,https://www.openstreetmap.org/?mlat=18.5247418&mlon=73.842369#map=18/18.5247418/73.842369,0,102.84450558682246,873.2815895721046,3.3676275684015256,0
Brain & Spine Clinic,18.5336185,73.8771317,clinic,https://www.openstreetmap.org/?mlat=18.5336185&mlon=73.8771317#map=18/18.5336185/73.8771317,0,105.72106484421029,829.965277100999,5.989197202724035,0
Dr. Soman's Skin and Spine Clinic,18.4929995,73.8212927,clinic,https://www.openstreetmap.org/?mlat=18.4929995&mlon=73.8212927#map=18/18.4929995/73.8212927,1,93.21720474311313,713.6234669397155,5.8262056497327785,0
Sushrut Hospital,18.5094542,73.8212265,clinic,https://www.openstreetmap.org/?mlat=18.5094542&mlon=73.8212265#map=18/18.5094542/73.8212265,1,194.02304335582136,553.5327123039854,6.801347910166447,0
Unique children's clinic Dental and Implant Center,18.4933045,73.8143999,clinic,https://www.openstreetmap.org/?mlat=18.4933045&mlon=73.8143999#map=18/18.4933045/73.8143999,1,158.08904060141705,653.5382435599336,3.847558158580272,0
Little Heart Care,18.5200387,73.841894,clinic,https://www.openstreetmap.org/?mlat=18.5200387&mlon=73.841894#map=18/18.5200387/73.841894,0,29.89288614787913,618.5011096012283,6.335542472123415,0
Dr. Patwardhan Eye Clinic,18.5101883,73.8176485,clinic,https://www.openstreetmap.org/?mlat=18.5101883&mlon=73.8176485#map=18/18.5101883/73.8176485,0,255.1109763893984,688.1866069920422,9.650630305947258,0
Dhairyaa Speciality Clinic - ENT and SPINE,18.4805986,73.8664619,clinic,https://www.openstreetmap.org/?mlat=18.4805986&mlon=73.8664619#map=18/18.4805986/73.8664619,1,130.21560651646553,568.3103976700346,7.001717544979239,0
Dr.Jawalkar,18.4935752,73.8403606,clinic,https://www.openstreetmap.org/?mlat=18.4935752&mlon=73.8403606#map=18/18.4935752/73.8403606,1,87.0490345280759,629.7599353643639,3.2416331463434322,0
Phadke's Vitality Dental Clinic,18.4906992,73.8240796,clinic,https://www.openstreetmap.org/?mlat=18.4906992&mlon=73.8240796#map=18/18.4906992/73.8240796,1,35.01090062099409,875.0435006635299,6.122345931380314,0
Unknown,18.4892033,73.8457414,clinic,https://www.openstreetmap.org/?mlat=18.4892033&mlon=73.8457414#map=18/18.4892033/73.8457414,1,262.8659395839166,776.0625818901701,5.089740574189613,0
Unknown,18.5254071,73.8302762,medical_store,https://www.openstreetmap.org/?mlat=18.5254071&mlon=73.8302762#map=18/18.5254071/73.8302762,0,284.3833527399255,529.6142376854363,6.949602746088868,0
Ram Medicals,18.4928884,73.8254317,medical_store,https://www.openstreetmap.org/?mlat=18.4928884&mlon=73.8254317#map=18/18.4928884/73.8254317,1,121.61326079846798,843.4611457551866,8.746680288328623,0
Prime Medical General Store,18.4929985,73.8256344,medical_store,https://www.openstreetmap.org/?mlat=18.4929985&mlon=73.8256344#map=18/18.4929985/73.8256344,1,23.117572685177546,573.8907806972531,7.110896709168734,0
Arham Medical,18.4935179,73.8253167,medical_store,https://www.openstreetmap.org/?mlat=18.4935179&mlon=73.8253167#map=18/18.4935179/73.8253167,1,179.72258142911303,875.4737719503994,9.18032590203046,0
Medplus,18.4906588,73.8231451,medical_store,https://www.openstreetmap.org/?mlat=18.4906588&mlon=73.8231451#map=18/18.4906588/73.8231451,1,54.912635553898035,770.7284593382669,7.081408095133762,0
Maharastra Chemist,18.4911834,73.8220481,medical_store,https://www.openstreetmap.org/?mlat=18.4911834&mlon=73.8220481#map=18/18.4911834/73.8220481,1,208.175684400272,556.6910240780295,9.763369203036655,0
Ram Medicals,18.460407,73.8260404,medical_store,https://www.openstreetmap.org/?mlat=18.460407&mlon=73.8260404#map=18/18.460407/73.8260404,1,226.22467786302784,868.0008271119893,6.325341036833564,0
Siddhivinayak Medico,18.4608084,73.8254478,medical_store,https://www.openstreetmap.org/?mlat=18.4608084&mlon=73.8254478#map=18/18.4608084/73.8254478,1,6.308225542370005,513.8697106885515,2.3530001058332117,0
Ram Medicare,18.4604276,73.8260307,medical_store,https://www.openstreetmap.org/?mlat=18.4604276&mlon=73.8260307#map=18/18.4604276/73.8260307,1,5.92244084260205,528.2064758661666,8.32949618684111,0
ss medical,18.5217914,73.8793287,medical_store,https://www.openstreetmap.org/?mlat=18.5217914&mlon=73.8793287#map=18/18.5217914/73.8793287,0,111.86997842933904,797.2083921313936,5.902743143533123,0
Jivan Medical And General Stores,18.4750451,73.8857009,medical_store,https://www.openstreetmap.org/?mlat=18.4750451&mlon=73.8857009#map=18/18.4750451/73.8857009,1,259.12268654972377,868.1457833517345,4.048468182550996,0
NEW SHIVNERI CHEMIST,18.4469631,73.8097559,medical_store,https://www.openstreetmap.org/?mlat=18.4469631&mlon=73.8097559#map=18/18.4469631/73.8097559,1,126.54764190603505,786.1959065421395,9.217438337877471,0
Marvel Chemist & Lifestyle,18.5364389,73.8997322,medical_store,https://www.openstreetmap.org/?mlat=18.5364389&mlon=73.8997322#map=18/18.5364389/73.8997322,0,214.01746175495134,630.7304726384466,4.648855806583013,0
New Rajhansa Medical,18.4746971,73.8125059,medical_store,https://www.openstreetmap.org/?mlat=18.4746971&mlon=73.8125059#map=18/18.4746971/73.8125059,1,236.771878716954,556.7170497508477,4.833262161797842,0
Mahesh Medical,18.4355084,73.8920059,medical_store,https://www.openstreetmap.org/?mlat=18.4355084&mlon=73.8920059#map=18/18.4355084/73.8920059,1,239.71921343941588,828.9628253539627,1.9713500430564879,0
Rahul Medicals,18.5117315,73.8088896,pharmacy,https://www.openstreetmap.org/?mlat=18.5117315&mlon=73.8088896#map=18/18.5117315/73.8088896,0,229.73282690400552,756.4079543684591,7.331566671146403,0
Siddhivinayak Medico,18.4745969,73.8139227,pharmacy,https://www.openstreetmap.org/?mlat=18.4745969&mlon=73.8139227#map=18/18.4745969/73.8139227,1,73.71599000858242,853.3764542737252,2.2892980026578282,0
Pharmacy,18.516684,73.833895,pharmacy,https://www.openstreetmap.org/?mlat=18.516684&mlon=73.833895#map=18/18.516684/73.833895,0,33.35828267558595,797.0498579714408,5.370052499681095,0
